NAME,ADDRESS,CATEGORY,DESCRIPTION,COUNTY,LATITUDE,LONGITUDE,RATING
"Alba Iulia smart City","Strada Gabriel Bethlen 5 Alba Iulia","Business & Services","N/A","Alba",46.07008,23.57189,0
"Ideativ City Tour - Day Tours","Strada Iederei 26 510041 Alba Iulia","Educational Facility","N/A","Alba",46.06836,23.55189,0
"City Cafe Bistro","Bulevardul Revoluției 1989 31 Alba Iulia","Restaurant","N/A","Alba",46.073047,23.558291,0
"Alba Iulia","Alba Iulia","Railway Station","N/A","Alba",46.05644,23.57586,0
"Cetatea Alba Iulia","Strada Mihai Viteazul Alba Iulia","Landmark/Attraction","N/A","Alba",46.06831,23.57666,0
"Cetatea Alba Carolina","Strada Militari 510009 Alba Iulia","Museum","N/A","Alba",46.06747,23.57233,0
"Citadel of Alba Iulia","Strada Unirii 510009 Alba Iulia","Sights & Museums","N/A","Alba",46.069855,23.566324,0
"Alba Mall","Strada Tudor Vladimirescu Alba Iulia","Shopping Centre","N/A","Alba",46.08059,23.58406,0
"Grădinița Emanuel Alba-Iulia","DN1 510158 Alba Iulia","Educational Facility","N/A","Alba",46.04495,23.56512,0
"Școala Sfântul Iosif Alba-Iulia","Strada Regimentul 5 Vânători 510158 Alba Iulia","Educational Facility","N/A","Alba",46.0476,23.56674,0
"Autogara Alba Iulia","Alba Iulia","Public Transport","N/A","Alba",46.05799,23.57612,0
"LIDL Alba Iulia","Sibiu","Food & Drink","N/A","Alba",45.7928,24.13049,0
"La Dolce Vita Alba-Iulia","Strada Bucovinei 4 510097 Alba Iulia","Restaurant","N/A","Alba",46.07172,23.57844,0
"The city of Alba Iulia.","Alba, Romania","Attraction","N/A","Alba",46.043785538461535,23.613401153846155,0
"The Apuseni Mountains.","Alba, Romania","Attraction","The Apuseni Mountains (Romanian: Munții Apuseni, Hungarian: Erdélyi-középhegység) is a mountain range in Transylvania, Romania, which belongs to the Western Romanian Carpathians, also called Occidentali in Romanian. Their name translates from Romanian as Mountains of the sunset i.e. western. The highest peak is Cucurbăta Mare (Hungarian: Nagy-Bihar) at 1849 metres, also called Bihor Peak. The Apuseni Mountains have about 400 caves.","Alba",0,0,0
"Scărișoara Karst Complex.","Alba, Romania","Attraction","Alba County (Romanian pronunciation: [ˈalba]) is a county (județ) of Romania, in Transylvania, its capital city being Alba-Iulia with a population of 63,536.[1]","Alba",0,0,0
"Maidens' Fair on the Găina Mountain.","Alba, Romania","Attraction","Țara Moților (German: Motzenland), also known as Țara de Piatră (The Stone Land) is an ethnogeographical region of Romania in the Apuseni Mountains, on the upper basin of the Arieș and Crișul Alb River rivers. It covers parts of the Alba, Arad, Bihor, Cluj and Hunedoara counties of Romania and a section of it forms the Apuseni Natural Park.","Alba",0,0,0
"The Hill With Snails west of Vidra.","Alba, Romania","Attraction","Alba County (Romanian pronunciation: [ˈalba]) is a county (județ) of Romania, in Transylvania, its capital city being Alba-Iulia with a population of 63,536.[1]","Alba",0,0,0
"Barren Detunata and Shaggy Detunata (Detunatele)","Alba, Romania","Attraction","Detunatele is a site of columnar jointing in Transylvania, Alba County, Romania. Detunatele means lightning strike. The columns are hexagonal shaped basalt and 1,258 meters tall on two peaks: Detunata Goala and Detunata Flocoasa (Barren Detunata and Shaggy Detunata). They are located in the Metaliferi Mountains and are a tourist attraction. They are 1.5 km apart. They formations are shaped like humps and there are stories and legends associated with them.[1]","Alba",0,0,0
"The Câlnic Castle and the Castle of Gârbova.","Alba, Romania","Attraction","Alba County (Romanian pronunciation: [ˈalba]) is a county (județ) of Romania, in Transylvania, its capital city being Alba-Iulia with a population of 63,536.[1]","Alba",0,0,0
"The Towns and Churches of Sebeș and Aiud.","Alba, Romania","Attraction","Alba County (Romanian pronunciation: [ˈalba]) is a county (județ) of Romania, in Transylvania, its capital city being Alba-Iulia with a population of 63,536.[1]","Alba",0,0,0
"Ocna Mureș","Alba","City, Town or Village","N/A","Alba",46.39008,23.85822,0
"Primăria Ocna Mureş","Strada Nicolae Iorga 515700 Ocna Mureș","Government or Community Facility","N/A","Alba",46.38242,23.85951,0
"Strada Ocna Mureș","012942 Bucharest","Street or Square","N/A","Alba",44.49315,26.03045,0
"Florăria Gaspol Ocna Mureș","Strada Nicolae Iorga 515700 Ocna Mureș","Recreation","N/A","Alba",46.38204,23.85904,0
"Tamplarie Pvc Optimedia Ocna Mures","Strada Nicolae Iorga 515700 Ocna Mureș","DIY/garden centre","N/A","Alba",46.3809,23.85723,0
"The Ocna Mureș Resort.","Alba, Romania","Attraction","The page Ocna mureș resort does not exist. You can ask for it to be created, but consider checking the search results below to see whether the topic is already covered.","Alba",46.005718,24.292890000000003,0
"The Țara Moților ethnographical area. Situated in the Apuseni Mountains, Țara Moților is a region with strong Romanian traditions.","Alba, Romania","Attraction","Alba County (Romanian pronunciation: [ˈalba]) is a county (județ) of Romania, in Transylvania, its capital city being Alba-Iulia with a population of 63,536.[1]","Alba",0,0,0
"Rosia Montana Mining Cultural Landscape - Mining began 2000 years ago on Mt. Kirnik, with well-preserved Roman galleries. A Canadian company attempted an open-pit mine, but abandoned the project around 2007. Roșia Montană is a famous locality among mineral collectors for fine native gold specimens.[4][5]","Alba, Romania","Attraction","Alba County (Romanian pronunciation: [ˈalba]) is a county (județ) of Romania, in Transylvania, its capital city being Alba-Iulia with a population of 63,536.[1]","Alba",0,0,0
"Profi City Arad Padis","Strada Lucian Blaga 2 Arad","Shop","N/A","Arad",46.17216,21.31549,0
"The city of Arad","Arad, Romania","Attraction","Arad (Romanian pronunciation: [aˈrad] (listen); Hungarian: Arad; Serbian: Арад/Arad) is the capital city of Arad County, historically situated in the region of Crișana, and having extended into the neighboring Banat region in the 20th century.[2] Arad is the third largest city in Western Romania, behind Timișoara and Oradea, and the 12th largest in Romania, with a population of 159,704.","Arad",46.17216,21.31549,0
"The Mureș Natural Floodplain Park","Arad, Romania","Attraction","The page Mureș natural floodplain park does not exist. You can ask for it to be created, but consider checking the search results below to see whether the topic is already covered.","Arad",0,0,0
"Bezdin Monastery","Arad, Romania","Attraction","The page Bezdin monastery does not exist. You can ask for it to be created, but consider checking the search results below to see whether the topic is already covered.","Arad",0,0,0
"Hodoș-Bodrog Monastery (est. 1177)","Arad, Romania","Attraction","Arad County (Romanian pronunciation: [aˈrad] (listen)) is an administrative division (judeţ) of Romania roughly translated into county in the western part of the country on the border with Hungary, mostly in the region of Crișana and few villages in Banat. The administrative center of the county lies in the city of Arad. The Arad County is part of the Danube–Criș–Mureș–Tisa Euroregion.","Arad",0,0,0
"Lipova resort and city","Arad, Romania","Attraction","The page Lipova resort and city does not exist. You can ask for it to be created, but consider checking the search results below to see whether the topic is already covered.","Arad",0,0,0
"Șoimoș, Dezna, Șiria stone citadels","Arad, Romania","Attraction","Arad County (Romanian pronunciation: [aˈrad] (listen)) is an administrative division (judeţ) of Romania roughly translated into county in the western part of the country on the border with Hungary, mostly in the region of Crișana and few villages in Banat. The administrative center of the county lies in the city of Arad. The Arad County is part of the Danube–Criș–Mureș–Tisa Euroregion.","Arad",0,0,0
"Montana Resort","Strada Principală 427007 Bistrița Bârgăului","Hotel","N/A","Arad",47.17653,24.90279,0
"Moneasa resort","Arad, Romania","Attraction","Moneasa (Hungarian: Menyháza) is a commune in Arad County, Romania, is situated at the foot of Codru-Moma Mountains. Its administrative surface stretches over 6824 hectares and it is composed of two villages, Moneasa (situated at 102 km from Arad) and Rănușa (Kisróna).","Arad",47.17653,24.90279,0
"The areas around Săvârșin, Petriș, Macea and Pecica.","Arad, Romania","Attraction","Arad County (Romanian pronunciation: [aˈrad] (listen)) is an administrative division (judeţ) of Romania roughly translated into county in the western part of the country on the border with Hungary, mostly in the region of Crișana and few villages in Banat. The administrative center of the county lies in the city of Arad. The Arad County is part of the Danube–Criș–Mureș–Tisa Euroregion.","Arad",0,0,0
"Jupiter City","117140 Bradu","Shopping Centre","N/A","Argeș",44.81902,24.94081,0
"Cinema City Pitesti","Pitești","Cinema","N/A","Argeș",44.8668,24.88346,0
"Cinema City Romania","Pitești","Cinema","N/A","Argeș",44.86641,24.88391,0
"City Pharma","Aleea Spitalului Pitești","Chemist's","N/A","Argeș",44.87184,24.84664,0
"Oficiul de Cadastru și Publicitate Imobiliară Argeș","Pitești","Government or Community Facility","N/A","Argeș",44.85444,24.87864,0
"Vivo!","Pitești","Shopping Centre","N/A","Argeș",44.866391,24.883932,0
"City Red Bistro","Strada Victoriei 28 110017 Pitești","Restaurant","N/A","Argeș",44.85903,24.86895,0
"McDonald's Pitesti","Strada Victoriei 12 110017 Pitești","Snacks/Fast food","N/A","Argeș",44.85694,24.87332,0
"Gara Pitești","Bulevardul Republicii Pitești","Railway Station","N/A","Argeș",44.84707,24.88735,0
"Vama Pitești","Bulevardul Petrochimiștilor Pitești","Government or Community Facility","N/A","Argeș",44.82683,24.91352,0
"smart Academy Of Languages","Bulevardul Republicii 110062 Pitești","Educational Facility","N/A","Argeș",44.86228,24.8652,0
"International Relations, University of Pitesti","Strada Târgul din Vale 110040 Pitești","Educational Facility","N/A","Argeș",44.854275,24.881357,0
"Autogara Astra Pitești","Strada Târgul din Vale Pitești","Public Transport","N/A","Argeș",44.85217,24.88474,0
"The city of Pitești","Argeș, Romania","Attraction","The page City of pitești does not exist. You can ask for it to be created, but consider checking the search results below to see whether the topic is already covered.","Argeș",44.85411507692307,24.88398684615385,0
"The city of Curtea de Argeș, where one of the most well known monasteries in Romania is located","Argeș, Romania","Attraction","Curtea de Argeș (Romanian pronunciation: [ˌkurte̯a de ˈard͡ʒeʃ] (listen)) is a city in Romania on the left bank of the Argeş River, where it flows through a valley of the lower Carpathians (the Făgăraș Mountains), on the railway from Pitești to the Turnu Roșu Pass. It is part of Argeș County. The city also administers one village, Noapteș.","Argeș",0,0,0
"The Câmpulung – Rucăr area","Argeș, Romania","Attraction","N/A","Argeș",0,0,0
"The Făgăraș Mountains – the Transfăgărășan","Argeș, Romania","Attraction","The page Făgăraș mountains – transfăgărășan does not exist. You can ask for it to be created, but consider checking the search results below to see whether the topic is already covered.","Argeș",0,0,0
"The Leaota Mountains","Argeș, Romania","Attraction","The page Leaota mountains does not exist. You can ask for it to be created, but consider checking the search results below to see whether the topic is already covered.","Argeș",0,0,0
"Poienari Castle","Transfăgărășan 117040 Arefu","Sights & Museums","N/A","Argeș",45.354977,24.634423,0
"The Poienari Castle","Argeș, Romania","Attraction","Coordinates: 45°21′13.49″N 24°38′6.80″E","Argeș",45.354977,24.634423,0
"Comana Monastery","Strada Radu Șerban 087055 Comana","Religious Place","N/A","Argeș",44.174719,26.144498,0
"The Cotmeana monastery.","Argeș, Romania","Attraction","The page Cotmeana monastery does not exist. You can ask for it to be created, but consider checking the search results below to see whether the topic is already covered.","Argeș",44.174719,26.144498,0
"The cities of Bacău and Onești.","Bacău, Romania","Attraction","The page Cities of bacău and onești does not exist. You can ask for it to be created, but consider checking the search results below to see whether the topic is already covered.","Bacău",0,0,0
"Coresi Shopping Resort","Strada Zaharia Stancu 1 Brașov","Shopping Centre","N/A","Bacău",45.67195,25.61633,0
"Cheile Gradistei Fundata","Fundata","Hotel","N/A","Bacău",45.4515,25.2997,0
"Cheile Gradistei","507131 Moieciu","Hotel","N/A","Bacău",45.46372,25.30413,0
"Grand Hotel Balvanyos (Balvanyos Resort)","DJ113 527160 Turia","Hotel","N/A","Bacău",46.11676,25.9423,0
"Mistral Resort Moieciu","Strada Valea Băngăleasa 507134 Moieciu","Accommodation","N/A","Bacău",45.42302,25.36299,0
"The resorts:","Bacău, Romania","Attraction","A resort (North American English) is a self-contained commercial establishment that tries to provide most of a vacationer's wants, such as food, drink, lodging, sports, entertainment, and shopping, on the premises. The term resort may be used for a hotel property that provides an array of amenities, typically including entertainment and recreational activities. A hotel is frequently a central feature of a resort, such as the Grand Hotel at Mackinac Island, Michigan. Some resorts are also condominium complexes that are timeshares or owed fractionally or wholly owned condominium. A resort is not always a commercial establishment operated by a single company, but in the late 20th century, that sort of facility became more common.","Bacău",45.62539,25.505090000000003,0
"Slănic-Moldova","Bacau","City, Town or Village","N/A","Bacău",46.22225,26.46807,0
"Primăria Slănic Moldova","Strada Vasile Alecsandri 605500 Slănic-Moldova","Government or Community Facility","N/A","Bacău",46.20864,26.43977,0
"Parcul Din Slanic Moldova","Strada Primăverii 605500 Slănic-Moldova","Recreation","N/A","Bacău",46.22304,26.47676,0
"Casa Andra- Slănic Moldova","Strada Nicolae Bălcescu 605500 Slănic-Moldova","Hotel","N/A","Bacău",46.22023,26.45535,0
"Moldova","Moldova","Administrative Region","N/A","Bacău",47.0246,28.83243,0
"Sanatoriul Balnear Slănic Moldova","605500 Slănic-Moldova","Hospital or Healthcare Facility","N/A","Bacău",46.20734,26.43926,0
"Oficiul Poștal Slănic Moldova","Strada Ștefan cel Mare 605500 Slănic-Moldova","Post Office","N/A","Bacău",46.21183,26.44275,0
"Păstrăvaria Slănic Moldova","DJ116A 605500 Slănic-Moldova","Restaurant","N/A","Bacău",46.20177,26.42657,0
"Slanic Moldova - Hotel Venus","Strada Mihai Eminescu 605500 Slănic-Moldova","Hotel","N/A","Bacău",46.20585,26.43434,0
"Slănic","Strada Nicolae Bălcescu 605500 Slănic-Moldova (Slanic-Moldova)","Restaurant","N/A","Bacău",46.20654,26.43821,0
"Slănic","Prahova","City, Town or Village","N/A","Bacău",45.23544,25.94011,0
"Slănic","Aninoasa","Administrative Region","N/A","Bacău",45.23068,24.8925,0
"Mănăstirea Slănic","Slănic-Moldova","Religious Place","N/A","Bacău",46.22326,26.52513,0
"Moldova Nouă","Caraș-Severin","City, Town or Village","N/A","Bacău",44.7347,21.66559,0
"Salina Slănic Prahova","237303 Slănic","Sights & Museums","N/A","Bacău",45.2359,25.94163,0
"Restaurant Laporta Slanic","Strada Nicolae Bălcescu 605500 Slănic-Moldova","Restaurant","N/A","Bacău",46.206352,26.438081,0
"Slănic-Moldova","Bacău, Romania","Attraction","Slănic Moldova is a town and a spa resort in Bacău County, Romania. The town administers two villages, Cerdac and Cireșoaia.","Bacău",45.987401375000005,26.141034437499997,0
"poblana near Sărata, Porumbacu de Jos, Romania","N/A","undefined","N/A","Bacău",45.73893,24.50384,0
"poblana near Sărata, Romania","N/A","undefined","N/A","Bacău",46.5025,26.87692,0
"poblana near Sărata, Bistrita, Romania","N/A","undefined","N/A","Bacău",47.07247,24.43524,0
"poblana near Sărata, Ulmeni, Romania","N/A","undefined","N/A","Bacău",45.06028,26.60804,0
"poblana near Sărata, Panticeu, Romania","N/A","undefined","N/A","Bacău",47.05476,23.49824,0
"poblana near Sărata, Solonț, Romania","N/A","undefined","N/A","Bacău",46.56737,26.55104,0
"poblana near Sărata, Dobreni, Romania","N/A","undefined","N/A","Bacău",46.98815,26.38826,0
"Poiana Sărată","Oituz","Administrative Region","N/A","Bacău",46.14235,26.45591,0
"Școala Primară Poiana Sărată","DN11 607371 Oituz","Educational Facility","N/A","Bacău",46.14312,26.45552,0
"Oficiu Poștal Poiana Sărată","DN11 607371 Oituz","Post Office","N/A","Bacău",46.14168,26.45433,0
"Strada Poiana Mărului (Strada Poiana Marului)","125300 Râmnicu Sărat","Street or Square","N/A","Bacău",45.38876,27.04431,0
"Popas Poiana Sarata.","DN11 Oituz","Restaurant","N/A","Bacău",46.12037,26.43007,0
"Pensiunea Maria, Poiana Sarata","DN11 607371 Oituz","Motel","N/A","Bacău",46.14225,26.45483,0
"poblana near Sarata, Saratskyi raion, Ukraine","N/A","undefined","N/A","Bacău",46.02715,29.68357,0
"poblana near Sarata, Putylskyi raion, Ukraine","N/A","undefined","N/A","Bacău",47.78685,24.98328,0
"Poiana Sărată","Bacău, Romania","Attraction","Oituz (formerly Grozești; Hungarian: Gorzafalva or Ojtoz) is a commune in Bacău County, Romania. It is composed of six villages: Călcâi (Zöldlonka), Ferestrău-Oituz (Fűrészfalva), Hârja (Herzsa), Marginea, Oituz and Poiana Sărată (Sósmező).","Bacău",46.32513266666667,26.188226666666665,0
"Târgu Ocna","Bacau","City, Town or Village","N/A","Bacău",46.28002,26.6052,0
"Salina Târgu Ocna","605600 Târgu Ocna","Sights & Museums","N/A","Bacău",46.28799,26.60356,0
"Gara Târgu Ocna","Strada Gării 605600 Târgu Ocna","Railway Station","N/A","Bacău",46.27911,26.62599,0
"Primăria Târgu Ocna","Strada Trandafirilor 605600 Târgu Ocna","Government or Community Facility","N/A","Bacău",46.27888,26.60597,0
"Gara Tîrgu Ocna","Strada Căpitan Bușilă 605600 Târgu Ocna","Railway Station","N/A","Bacău",46.28202,26.60685,0
"Poliția Târgu Ocna","Strada Gheorghe Asachi 605600 Târgu Ocna","Police Station","N/A","Bacău",46.27853,26.60496,0
"Casa Creanga Targu Ocna","Strada Alexandru Vlahuță 605600 Târgu Ocna","Hotel","N/A","Bacău",46.280998,26.62243,0
"Intrarea Târgu Ocna","051321 Bucharest","Street or Square","N/A","Bacău",44.39325,26.05911,0
"Alexandra Styl - Tg. Ocna","Strada 9 Mai 605600 Târgu Ocna","Service","N/A","Bacău",46.28053,26.61041,0
"Piscina Targu Ocna","DJ116C 605600 Târgu Ocna","Sport Facility/Venue","N/A","Bacău",46.27465,26.59506,0
"La Conac Târgu Ocna","605600 Târgu Ocna","Hotel","N/A","Bacău",46.279195,26.597797,0
"Cardiomed Târgu Ocna","Strada Ion Slătineanu 605600 Târgu Ocna","Hospital or Healthcare Facility","N/A","Bacău",46.27864,26.61432,0
"Pensiunea Elena","Strada Ștefan Constantinescu 14 605600 Târgu Ocna","Hostel","N/A","Bacău",46.27673,26.61505,0
"Motelanda Targu Ocna","Strada Costache Negri 605600 Târgu Ocna","Motel","N/A","Bacău",46.27372,26.64047,0
"Taxi Vip Targu Ocna.Tel 0747757125","605600 Târgu Ocna","Transport","N/A","Bacău",46.280293,26.609171,0
"Scoala Gimnaziala Nr.2 Targu Ocna","Strada Oituz 605600 Târgu Ocna","Educational Facility","N/A","Bacău",46.27821,26.61451,0
"Scoala Gimnaziala Nr.1 Tg. Ocna","DN12A 605600 Târgu Ocna","Educational Facility","N/A","Bacău",46.279925,26.608338,0
"Fitness 24 Club - Tg. Ocna","Strada Oituz 2 605600 Târgu Ocna","Sport Facility/Venue","N/A","Bacău",46.27781,26.61336,0
"Blue Night Tg.Ocna","DN12A Târgu Ocna","Accommodation","N/A","Bacău",46.28018,26.60716,0
"Târgu Ocna","Bacău, Romania","Attraction","Târgu Ocna (Romanian pronunciation: [ˌtɨrɡu ˈokna]) is a town in Bacău County, Romania, situated on the left bank of the Trotuș River, an affluent of the Siret, and on a branch railway which crosses the Ghimeș Pass from Moldavia into Transylvania. Târgu Ocna is built among the Carpathian Mountains on bare hills formed of rock salt. In fact the English translation of Ocna is salt mine.","Bacău",46.180035842105276,26.58209031578948,0
"Poiana Ursului","Meteș","Administrative Region","N/A","Bacău",46.0911,23.35845,0
"Strada Poiana Soarelui","500001 Brasov","Street or Square","N/A","Bacău",45.59876,25.55176,0
"Barajul Poiana Uzului","605300 Dărmănești","Tourist Information","N/A","Bacău",46.337861,26.390992,0
"Strada Poiana Ursului","500001 Brasov","Street or Square","N/A","Bacău",45.60125,25.5564,0
"Strada Poiana Ruia","500001 Brasov","Street or Square","N/A","Bacău",45.59846,25.55404,0
"Strada Poiana lui Stechil","500001 Brasov","Street or Square","N/A","Bacău",45.59786,25.56161,0
"Drumul Poiana Ursului","014637 Bucharest","Street or Square","N/A","Bacău",44.47538,26.01924,0
"Strada Poiana Soarelui","500001 Brasov","Junction","N/A","Bacău",45.59516,25.55359,0
"Strada Poiana Ruia","500001 Brasov","Junction","N/A","Bacău",45.59818,25.55293,0
"Strada Poiana lui Stechil","500001 Brasov","Junction","N/A","Bacău",45.59831,25.55684,0
"Strada Poiana Ruia","500001 Brasov","Junction","N/A","Bacău",45.59864,25.55599,0
"Poiana Uzului","Bacău, Romania","Attraction","The page Poiana uzului does not exist. You can ask for it to be created, but consider checking the search results below to see whether the topic is already covered.","Bacău",45.60826918181818,25.473803818181818,0
"The Nemira Mountains.","Bacău, Romania","Attraction","The page Nemira mountains does not exist. You can ask for it to be created, but consider checking the search results below to see whether the topic is already covered.","Bacău",0,0,0
"Oradea City Hall","Piața Unirii 1 410065 Oradea","Government or Community Facility","N/A","Bihor",47.055776,21.928115,0
"Gara Centrala Oradea","Oradea","Railway Station","N/A","Bihor",47.06989,21.93547,0
"Oradea Shopping City","Oradea","Cinema","N/A","Bihor",47.04335,21.89759,0
"City Taxi Oradea","Strada Ștefan Simion 4 410195 Oradea","Transport","N/A","Bihor",47.059444,21.925192,0
"Cortina Digiplex Oradea Shopping City","410065 Oradea","Cinema","N/A","Bihor",47.043537,21.897808,0
"Oradea City Tour","Strada Crinului 410074 Oradea","Tourist Information","N/A","Bihor",47.05205,21.93444,0
"The city of Oradea.","Bihor, Romania","Attraction","The page City of oradea does not exist. You can ask for it to be created, but consider checking the search results below to see whether the topic is already covered.","Bihor",47.05400783333334,21.91976916666667,0
"The Apuseni Mountains:","Bihor, Romania","Attraction","The Apuseni Mountains (Romanian: Munții Apuseni, Hungarian: Erdélyi-középhegység) is a mountain range in Transylvania, Romania, which belongs to the Western Romanian Carpathians, also called Occidentali in Romanian. Their name translates from Romanian as Mountains of the sunset i.e. western. The highest peak is Cucurbăta Mare (Hungarian: Nagy-Bihar) at 1849 metres, also called Bihor Peak. The Apuseni Mountains have about 400 caves.","Bihor",0,0,0
"Halta Stâna de Vale","417080 Bratca","Railway Station","N/A","Bihor",46.92745,22.64742,0
"Mânastirea Stâna de Vale","417100 Budureasa","Religious Place","N/A","Bihor",46.69123,22.61969,0
"Cabana Stana de Vale","Strada Trandafirilor 153 545500 Sovata","Hotel","N/A","Bihor",46.60517,25.09436,0
"Stațiunea Stâna de Vale","DJ764A Budureasa","Sights & Museums","N/A","Bihor",46.69087,22.62326,0
"Camping Stâna de Vale","Strada Stâna de Vale Sovata","Camping","N/A","Bihor",46.60879,25.1016,0
"Camping Stâna DE Vale","Strada Stâna de Vale 545500 Sovata","Camping","N/A","Bihor",46.595351,25.092818,0
"The Stâna de Vale Resort and the Iada valley.","Bihor, Romania","Attraction","N/A","Bihor",46.68647683333333,23.863191333333333,0
"The Caves around Padiș and on the Sighiștel River Valley.","Bihor, Romania","Attraction","The page Caves around padiș and on sighiștel does not exist. You can ask for it to be created, but consider checking the search result below to see whether the topic is already covered.","Bihor",0,0,0
"Bears Cave","417365 Pietroasa","Sights & Museums","N/A","Bihor",46.55402,22.56929,0
"The Bear's Cave.","Bihor, Romania","Attraction","","Bihor",46.55402,22.56929,0
"Băile Felix","Sânmartin","Administrative Region","N/A","Bihor",46.99328,21.98319,0
"Baile Felix","Strada Primăverii 417500 Sânmartin","Sights & Museums","N/A","Bihor",46.9916,21.98007,0
"Hotel International Baile Felix","Strada Victoriei 417500 Sânmartin","Hotel","N/A","Bihor",46.98702,21.98077,0
"Bulevardul Băile Felix","417495 Sânmartin","Street or Square","N/A","Bihor",47.00565,21.97451,0
"Gara Băile Felix","Strada Victoriei 417500 Sânmartin","Railway Station","N/A","Bihor",46.9912,21.97642,0
"Poliția Băile Felix","Strada Victoriei 417500 Sânmartin","Police Station","N/A","Bihor",46.99634,21.97891,0
"Pensiunea Silvia Baile Felix","Strada Primăverii 417500 Sânmartin","Hotel","N/A","Bihor",46.98825,21.98157,0
"Apartament Maia Baile Felix","Strada Zorilor 417500 Sânmartin","Hotel","N/A","Bihor",46.98857,21.98351,0
"Casa Stefany Baile Felix","Strada Iasomiei 417500 Sânmartin","Accommodation","N/A","Bihor",46.987112,21.984448,0
"Metocul Băile Felix","Strada Primăverii 417500 Sânmartin","Religious Place","N/A","Bihor",46.99032,21.98027,0
"Restaurant Rustic","Strada Primăverii 417500 Sânmartin","Restaurant","N/A","Bihor",46.98933,21.98089,0
"Spitalul Clinic de Recuperare Medicală-Băile Felix","Calea Beiușului 417500 Sânmartin","Hospital or Healthcare Facility","N/A","Bihor",46.99051,21.98339,0
"Visit Baile Felix","Bulevardul Ștefan cel Mare 410115 Oradea","Landmark/Attraction","N/A","Bihor",47.07422,21.93177,0
"Pensiunea Sebastian","Strada Primăverii 417500 Sânmartin","Accommodation","N/A","Bihor",46.99012,21.98038,0
"Vila Allegra Baile Felix","DC64 417495 Sânmartin","Hotel","N/A","Bihor",46.98079,21.980934,0
"Pensiunea Metropol, Băile Felix","DN76 417276 Sânmartin","Accommodation","N/A","Bihor",46.96646,21.99378,0
"Echitatie Baile Felix","Strada Lăpușului 410264 Oradea","Sport Facility/Venue","N/A","Bihor",47.06319,21.91136,0
"Cazare Baile Felix","Strada Zorilor 417500 Sânmartin","Tourist Information","N/A","Bihor",46.98861,21.98358,0
"Pensiunea Ana Maria","Strada Primăverii 417500 Sânmartin","Accommodation","N/A","Bihor",46.98869,21.98094,0
"Băile Felix Resort.","Bihor, Romania","Attraction","Băile Felix (Hungarian: Félixfürdő) is a thermal spa resort near the commune of Sânmartin in Bihor County, Transylvania, Romania. They are among the best known and most quality thermal spas in the country. Băile Felix is also at a close distance to Oradea, a major city in western Romania.","Bihor",46.99743484210526,21.975299578947368,0
"The City Hall","Strada Piatra Mare 500133 Brașov","Government or Community Facility","N/A","Brașov",45.63609,25.57562,0
"City Insurance","Strada Zizinului 500414 Brașov","Business & Services","N/A","Brașov",45.65062,25.61914,0
"Brasov City","Brașov","Business & Services","N/A","Brașov",45.57414,25.6145,0
"Braşov","Brașov","Railway Station","N/A","Brașov",45.6608,25.61357,0
"Old City Pension","Strada Constantin Brâncoveanu 500132 Brașov","Accommodation","N/A","Brașov",45.63627,25.57919,0
"City Garden","Brașov","Shopping Centre","N/A","Brașov",45.63343,25.63747,0
"Apart City Center Brasov","Strada Matei Basarab 500008 Brașov","Hotel","N/A","Brașov",45.64549,25.6075,0
"Grădina Zoologică Brașov","Strada Stejarului 500312 Brașov","Theme Park","N/A","Brașov",45.61401,25.6332,0
"City Dent","Strada Dobrogeanu Gherea 500003 Brașov","Hospital or Healthcare Facility","N/A","Brașov",45.64289,25.59924,0
"City Club","Strada Uranus 500026 Brașov","Restaurant","N/A","Brașov",45.64282,25.63134,0
"Book City","Brașov","Shop","N/A","Brașov",45.67205,25.61821,0
"Hotel City Center","Strada Traian Grozăvescu Brașov","Hotel","N/A","Brașov",45.65062,25.60267,0
"City Lights Home","Strada Stejerișului 16 500122 Brașov","Hotel","N/A","Brașov",45.6457,25.58253,0
"The city of Brașov.","Brașov, Romania","Attraction","The page City of brașov does not exist. You can ask for it to be created, but consider checking the search results below to see whether the topic is already covered.","Brașov",45.63884076923077,25.608783076923075,0
"Poiana Brasov Ski & Snowboard Resort","Strada Drumul Sulinar 500001 Brașov","Sport Facility/Venue","N/A","Brașov",45.587983,25.551603,0
"Alpin Hotel Resort & Spa","500001 Brașov","Hotel","N/A","Brașov",45.59626,25.55132,0
"Mountain Villa","Strada Valea Cheii 500001 Brașov","Hotel","N/A","Brașov",45.59524,25.55703,0
"Alpin Resort Hotel Residence","500001 Brașov","Hotel","N/A","Brașov",45.59637,25.55126,0
"Silver Mountain","9-11 Brașov","Hotel","N/A","Brașov",45.60394,25.54285,0
"Poiana","500001 Brașov","Hotel","N/A","Brașov",45.59366,25.55707,0
"Hotel Monterai Resort","Strada Poiana Soarelui 500001 Brașov","Hotel","N/A","Brașov",45.609437,25.554,0
"Salvamont Poiana Brașov","500001 Brașov","Government or Community Facility","N/A","Brașov",45.595797,25.548769,0
"Piatra Mare Hotel Resort","500001 Brașov","Hotel","N/A","Brașov",45.59483,25.54803,0
"TraveLand Poiana Brasov","Strada Valea Lungă 500001 Brașov","Accommodation","N/A","Brașov",45.5891,25.54758,0
"Mountain Flat Brasov","Strada Prundului 43 500123 Brașov","Hotel","N/A","Brașov",45.63686,25.5822,0
"Poliția Poiana Brașov","Strada Poiana Soarelui 500001 Brașov","Police Station","N/A","Brașov",45.59366,25.55322,0
"Sport Hotel Poiana Brasov","500001 Brașov","Hotel","N/A","Brașov",45.5924,25.55686,0
"Hotel Rina Vista","500001 Brașov","Hotel","N/A","Brașov",45.59604,25.54919,0
"Coliba Haiducilor","Strada Drumul Sulinar 500001 Brașov","Restaurant","N/A","Brașov",45.58902,25.55438,0
"Drachenhaus Poiana Brasov","Strada Poiana Ruia 1 500001 Brașov","Hotel","N/A","Brașov",45.59792,25.55255,0
"Pensiunea Mountain King","507267 Sâmbăta de Sus","Accommodation","N/A","Brașov",45.6953,24.80452,0
"poblana near Mountain Villa, Brașov, ROU","N/A","undefined","N/A","Brașov",45.59524,25.55703,0
"poblana near Mountain Flat Brasov, Brașov, ROU","N/A","undefined","N/A","Brașov",45.63686,25.5822,0
"Poiana Brașov mountain resort.","Brașov, Romania","Attraction","Poiana Brașov (Romanian pronunciation: [poˈjana braˈʃov]) is a neighborhood of Brasov and a Romanian ski resort popular among visitors from many European states. After the 2010s modernization, the ski area has expanded from 50 hectares to 80 hectares and the slopes length was increased from 13.8 km to 23.9 km. most slopes now have snow cannons installed. In 2013, it hosted figure skating, alpine skiing and short track in the European Youth Olympic Winter Festival.","Brașov",45.60504826315789,25.515876947368426,0
"Hotel Resort Hart","505303 Predeal","Hotel","N/A","Brașov",45.52566,25.57151,0
"Predeal","Strada Muncii 6 505300 Predeal","Hotel","N/A","Brașov",45.506289,25.580555,0
"Complex Eden","Strada Neagoe Basarab 7 505300 Predeal","Hotel","N/A","Brașov",45.51072,25.59105,0
"Atrium Hotel Mountain View Predeal","Strada Tudor Vladimirescu 24 505300 Predeal","Hotel","N/A","Brașov",45.50087,25.5792,0
"Mountain Sanctuary","Strada Avram Iancu 505300 Predeal","Accommodation","N/A","Brașov",45.51104,25.57269,0
"Mountain Saloon","Bulevardul Mihail Săulescu 505300 Predeal","Restaurant","N/A","Brașov",45.50241,25.57428,0
"Gara Predeal","505300 Predeal","Railway Station","N/A","Brașov",45.50535,25.57493,0
"Primaria Predeal","Bulevardul Mihail Săulescu 127 505300 Predeal","Government or Community Facility","N/A","Brașov",45.50794,25.57373,0
"Clăbucet","Strada Teleferic 505300 Predeal","Sport Facility/Venue","N/A","Brașov",45.49922,25.5766,0
"Mountain Saloon","Șoseaua Predeal (Soseaua Predeal) Râșnov","Restaurant","N/A","Brașov",45.57301,25.45581,0
"Hotel Belvedere Predeal","Bulevardul Libertății 102 505300 Predeal","Hotel","N/A","Brașov",45.51039,25.59222,0
"Pension Regina","Bulevardul Mihail Săulescu 113 505300 Predeal","Accommodation","N/A","Brașov",45.501,25.57408,0
"Manastirea Predeal","Strada Mănăstirii Predeal","Religious Place","N/A","Brașov",45.48812,25.5683,0
"Klass Predeal","Strada Teleferic 1 505300 Predeal","Hotel","N/A","Brașov",45.49968,25.57859,0
"Predeal Comfort Suites","Strada Trei Brazi 33 505300 Predeal","Hotel","N/A","Brașov",45.51078,25.56688,0
"La Fontanella","Bulevardul Mihail Săulescu 505300 Predeal","Snacks/Fast food","N/A","Brașov",45.50072,25.57405,0
"Cabana Vanatorilor","Strada Trei Brazi 3 505300 Predeal","Accommodation","N/A","Brașov",45.50939,25.56662,0
"Hotel Bulevard Predeal","Bulevardul Mihail Săulescu 129 505300 Predeal","Hotel","N/A","Brașov",45.50868,25.57395,0
"Hotel Hera","Strada Trei Brazi 12 505300 Predeal","Hotel","N/A","Brașov",45.51184,25.56896,0
"Orizont Hotel","6 Predeal","Hotel","N/A","Brașov",45.511494,25.570552,0
"Predeal mountain resort.","Brașov, Romania","Attraction","","Brașov",45.50973015,25.569227850000004,0
"Bran with its castle often referred to as Dracula's castle.","Brașov, Romania","Attraction","Bran Castle (Romanian: Castelul Bran; German: Törzburg; Hungarian: Törcsvár), situated near Bran and in the immediate vicinity of Brașov, is a national monument and landmark in Romania. The fortress is situated on the border between Transylvania and Wallachia, on DN73.","Brașov",0,0,0
"The Făgăraș Mountains.","Brașov, Romania","Attraction","Făgăraș Mountains (Romanian: Munții Făgărașului [ˈmunt͡sij fəɡəˈraʃuluj] , Hungarian: Fogaras hegység [ˈfoɡɒrɒʃ hɛɟˈʃeːɡ]), are the highest mountains of the Southern Carpathians, in Romania. The highest peaks are:","Brașov",0,0,0
"The medieval fortresses of Făgăraș and Râșnov.","Brașov, Romania","Attraction","The page Medieval fortresses of făgăraș and râșnov does not exist. You can ask for it to be created, but consider checking the search results below to see whether the topic is already covered.","Brașov",0,0,0
"The Fortified churches from the Saxon villages in the Burzenland area.","Brașov, Romania","Attraction","The page Fortified churches from saxon villages does not exist. You can ask for it to be created, but consider checking the search results below to see whether the topic is already covered.","Brașov",0,0,0
"Brăila","Strada Siretului Brăila","Railway Station","N/A","Brăila",45.28122,27.95631,0
"Of. Poștal de Distribuire Brăila","Strada General Eremia Grigorescu 25 810073 Brăila","Post Office","N/A","Brăila",45.2804,27.9568,0
"Medieval City of Sibiu","Piața Mare 12 550163 Sibiu","Sights & Museums","N/A","Brăila",45.79653,24.15249,0
"Promenada Mall Brăila","817025 Chișcani","Shopping Centre","N/A","Brăila",45.22908,27.93738,0
"Braila Mall","817025 Chișcani","Shopping Centre","N/A","Brăila",45.22987,27.93745,0
"The city of Brăila.","Brăila, Romania","Attraction","Brăila (Romanian pronunciation: [brəˈila] (listen); Greek: Βράιλα; Turkish: İbrail) is a city in Muntenia, eastern Romania, a port on the Danube and the capital of Brăila County. The Sud-Est Regional Development Agency is located in Brăila.","Brăila",45.363420000000005,27.188086,0
"Lacu Sărat","Chișcani","Administrative Region","N/A","Brăila",45.21722,27.89186,0
"Lacu Sărat","Pomezeu","Administrative Region","N/A","Brăila",46.80099,22.35628,0
"Gara Lacu Sărat","DC8 817025 Chișcani","Railway Station","N/A","Brăila",45.22625,27.86713,0
"Stațiunea Lacu Sărat","Chișcani","Administrative Region","N/A","Brăila",45.21579,27.91714,0
"Mănăstirea Lacu Sărat","Aleea Mânăstirii 817026 Chișcani","Religious Place","N/A","Brăila",45.21493,27.91522,0
"Plaja Lacu Sărat","Aleea Plajelor 817026 Chișcani","Sights & Museums","N/A","Brăila",45.21623,27.91593,0
"Centrul de Agrement Lacu Sărat","Aleea Mânăstirii 817026 Chișcani","Sights & Museums","N/A","Brăila",45.21449,27.91213,0
"Jandarmeria Lacu Sărat","Aleea Stejarului 817026 Chișcani","Government or Community Facility","N/A","Brăila",45.21427,27.9101,0
"Stațiunea Balneară Lacu Sărat","Aleea Centrală 817026 Chișcani","Hospital or Healthcare Facility","N/A","Brăila",45.21553,27.915,0
"Căm. Pt. Pers. Vârstnice Lacu Sărat","Aleea Centrală 817026 Chișcani","Hospital or Healthcare Facility","N/A","Brăila",45.21604,27.91934,0
"Lac de Verde - Golf & Leisure Resort","Strada Carierei 44 105401 Breaza","Hotel","N/A","Brăila",45.17248,25.65731,0
"Parcare Stațiunea Lacu Sărat","817026 Chișcani","Parking Facility","N/A","Brăila",45.21682,27.92096,0
"Caffe Bar Lacu Sarat","Strada Principală 817026 Chișcani","Bar/Pub","N/A","Brăila",45.216314,27.89031,0
"Restaurant Lacu Sarat","Aleea Centrală 817026 Chișcani","Restaurant","N/A","Brăila",45.215148,27.91212,0
"Vila Nufărul","Aleea Centrală 817026 Chișcani","Accommodation","N/A","Brăila",45.21531,27.91361,0
"The Lacu Sărat [ro] Resort.","Brăila, Romania","Attraction","N/A","Brăila",45.319187466666676,27.387629333333333,0
"Buzău","Bulevardul 1 Decembrie 1918 Buzău","Railway Station","N/A","Buzău",45.14322,26.82577,0
"Primăria Buzău","Strada Sfântul Sava Gotul 120188 Buzău","Government or Community Facility","N/A","Buzău",45.15341,26.82098,0
"Buzău","Șoseaua De Centură 1 Buzău","Restaurant","N/A","Buzău",45.160256,26.78594,0
"School Of Beauty Buzau","Strada Plevnei 120218 Buzău","Service","N/A","Buzău",45.14378,26.82351,0
"Kaufland","Buzău","Food & Drink","N/A","Buzău",45.16201,26.8203,0
"The city of Buzău.","Buzău, Romania","Attraction","N/A","Buzău",45.1525352,26.815299999999997,0
"The Vrancea Mountains and Buzău Mountains.","Buzău, Romania","Attraction","N/A","Buzău",0,0,0
"Berca Mud Volcanoes","127555 Scorțoasa","Sights & Museums","N/A","Buzău",45.35992,26.71407,0
"Berca Romania Mud Volcanoes","Buzău","Tourist Information","N/A","Buzău",45.162483,26.818314,0
"The Berca Mud Volcanoes","Buzău, Romania","Attraction","The page Berca mud volcanoes does not exist. You can ask for it to be created, but consider checking the search results below to see whether the topic is already covered.","Buzău",45.2612015,26.766192,0
"The amber museum in Colți","Buzău, Romania","Attraction","The page Amber museum in colți does not exist. You can ask for it to be created, but consider checking the search results below to see whether the topic is already covered.","Buzău",0,0,0
"The Ciolanu Monastery and the Măgura sculpture camp","Buzău, Romania","Attraction","Măgura is a commune in the Buzău County of Romania, located on the right bank of the Buzău River, in the hillside next to the Carpathian Mountains' curvature. It is composed of two villages, Ciuta and Măgura. It also included Ojasca and Unguriu villages from 1968 until 2004, when these were split off to form Unguriu Commune.","Buzău",0,0,0
"Ratesti Monastery","Strada Principală 127121 C.A. Rosetti","Religious Place","N/A","Buzău",45.008001,27.1467,0
"The Rătești Monastery","Buzău, Romania","Attraction","N/A","Buzău",45.008001,27.1467,0
"The Amara Resort.","Buzău, Romania","Attraction","N/A","Buzău",0,0,0
"Sărata-Monteoru","Merei","Administrative Region","N/A","Buzău",45.1446,26.64513,0
"Sărata Monteoru","Strada Principală 127366 Merei","Sights & Museums","N/A","Buzău",45.14597,26.64264,0
"Oficiul Poștal Sărata-Monteoru","Strada Principală 127366 Merei","Post Office","N/A","Buzău",45.14647,26.6417,0
"Casa David - Sarata Monteoru","Strada Principală 127366 Merei","Hotel","N/A","Buzău",45.144392,26.645822,0
"Vila Olga - Sarata Monteoru","Merei","Accommodation","N/A","Buzău",45.14699,26.64857,0
"Salt Water Swimming Pool","Merei","Sport Facility/Venue","N/A","Buzău",45.14969,26.63573,0
"Ski Vidra Transalpina","DJ701D 247750 Voineasa","Leisure & Outdoor","N/A","Buzău",45.42245,23.69544,0
"Hotel Casino in Sarata Monteoru","127366 Merei","Hotel","N/A","Buzău",45.148713,26.633199,0
"Coresi Shopping Resort","Strada Zaharia Stancu 1 Brașov","Shopping Centre","N/A","Buzău",45.67195,25.61633,0
"Resort Ambient","Strada Nucilor 507055 Cristian","Hotel","N/A","Buzău",45.62642,25.47894,0
"Resort David","117630 Rucăr","Hotel","N/A","Buzău",45.38622,25.18005,0
"Pension Natura","557190 Porumbacu de Jos","Accommodation","N/A","Buzău",45.676872,24.452483,0
"Mistral Resort Moieciu","Strada Valea Băngăleasa 507134 Moieciu","Accommodation","N/A","Buzău",45.42302,25.36299,0
"Alpin Hotel Resort & Spa","500001 Brașov","Hotel","N/A","Buzău",45.59626,25.55132,0
"Grand Hotel Balvanyos (Balvanyos Resort)","DJ113 527160 Turia","Hotel","N/A","Buzău",46.11676,25.9423,0
"Cheile Gradistei","507131 Moieciu","Hotel","N/A","Buzău",45.46372,25.30413,0
"Cheile Gradistei Fundata","Fundata","Hotel","N/A","Buzău",45.4515,25.2997,0
"Valea Verde Resort","Strada Principală 119 547057 Bahnea","Accommodation","N/A","Buzău",46.26921,24.51006,0
"Piatra Mare Hotel Resort","500001 Brașov","Hotel","N/A","Buzău",45.59483,25.54803,0
"The Sărata-Monteoru Resort.","Buzău, Romania","Attraction","N/A","Buzău",45.45926510526316,25.707082315789467,0
"Calarasi (Călărași)","Romania","City, Town or Village","N/A","Călărași",44.19657,27.3354,0
"Călărași","Cluj","City, Town or Village","N/A","Călărași",46.48551,23.85567,0
"Călărași","Dolj","City, Town or Village","N/A","Călărași",43.79224,24.04463,0
"Călărași","Moldova","City, Town or Village","N/A","Călărași",47.24362,28.31385,0
"Primăria Călărași","407130 Călărași","Government or Community Facility","N/A","Călărași",46.48404,23.85407,0
"Călăraşi Turda Hm.","DC68 407132 Călărași","Railway Station","N/A","Călărași",46.48748,23.88565,0
"Primaria Municipiului Călărași","Strada Ion Heliade Rădulescu Călărași","Government or Community Facility","N/A","Călărași",44.19012,27.33492,0
"Gara Călărași","Strada Victor Babeș Călărași","Railway Station","N/A","Călărași",44.19939,27.33388,0
"Primăria Călărași","DN54A 207170 Călărași","Government or Community Facility","N/A","Călărași",43.79344,24.04822,0
"Călărași","Strada 1 Decembrie 1918 Călărași","Hotel","N/A","Călărași",44.19084,27.33108,0
"Parchetul Călărași","Strada Grivița Călărași","Government or Community Facility","N/A","Călărași",44.1957,27.32724,0
"Poliția Călărași","407130 Călărași","Police Station","N/A","Călărași",46.4842,23.85385,0
"The town of Călărași;","Călărași, Romania","Attraction","N/A","Călărași",45.145262499999994,25.70987166666667,0
"Oltenița","Calarasi","City, Town or Village","N/A","Călărași",44.09601,26.63948,0
"Primăria Oltenița","Bulevardul Republicii 915400 Oltenița","Government or Community Facility","N/A","Călărași",44.08667,26.63766,0
"Gara Oltenița","Bulevardul Republicii 915400 Oltenița","Railway Station","N/A","Călărași",44.08551,26.6449,0
"Autogara Oltenița","Șoseaua Călărași 915400 Oltenița","Public Transport","N/A","Călărași",44.09682,26.64212,0
"Modern,Oltenita","Bulevardul Republicii 55 915400 Oltenița","Restaurant","N/A","Călărași",44.08617,26.64117,0
"Tribunalul Oltenița","Bulevardul Tineretului 915400 Oltenița","Government or Community Facility","N/A","Călărași",44.087008,26.63853,0
"Baza Siloz Oltenița","Intrarea Călărași 915400 Oltenița","Outdoor Area/Complex","N/A","Călărași",44.09543,26.65147,0
"Poliția Oltenița","Strada Argeșului 109-111 Oltenița","Police Station","N/A","Călărași",44.08539,26.63656,0
"Oltenia Business Center","Bulevardul Dem Rădulescu Râmnicu Vâlcea","Business & Services","N/A","Călărași",45.08692,24.36881,0
"The town of Oltenița;","Călărași, Romania","Attraction","N/A","Călărași",44.20065866666667,26.388966666666665,0
"Fishing on the Danube.","Călărași, Romania","Attraction","N/A","Călărași",0,0,0
"Sfantu Gheorghe","Strada 1 Decembrie 1918 520023 Sfântu Gheorghe","Sights & Museums","N/A","Covasna",45.86497,25.79014,0
"Gara Sfântu Gheorghe","Strada Gării 520071 Sfântu Gheorghe","Railway Station","N/A","Covasna",45.86332,25.81006,0
"City Slot Sfantu Gheorghe","520089 Sfântu Gheorghe","Going Out","N/A","Covasna",45.85773,25.79635,0
"Primăria","Strada 1 Decembrie 1918 520008 Sfântu Gheorghe","Government or Community Facility","N/A","Covasna",45.86616,25.78842,0
"City Shaworma","Strada Grof Miko Imre 520003 Sfântu Gheorghe","Food & Drink","N/A","Covasna",45.86479,25.78809,0
"Profi City","Strada Narciselor Sfântu Gheorghe","Food & Drink","N/A","Covasna",45.86223,25.79927,0
"Hărnicia","Strada Nicolae Bălcescu 520027 Sfântu Gheorghe","Shop","N/A","Covasna",45.86429,25.79243,0
"Covasna Chamber Of Commerce And Industry","520027 Sfântu Gheorghe","Business & Services","N/A","Covasna",45.86588,25.79202,0
"Art of the Samurai","Strada Nicolae Bălcescu 520027 Sfântu Gheorghe","Sport Facility/Venue","N/A","Covasna",45.8646,25.79253,0
"Consiliul Judetean Sfantu Gheorghe","Piața Libertății 520008 Sfântu Gheorghe","Government or Community Facility","N/A","Covasna",45.86676,25.78611,0
"Biserica Sfântu Gheorghe","Strada Alexandru Voievod 115100 Câmpulung","Religious Place","N/A","Covasna",45.26344,25.03749,0
"Kaufland Sfântu-Gheorghe","Strada Lunca Oltului 520036 Sfântu Gheorghe","Food & Drink","N/A","Covasna",45.86977,25.80075,0
"Sfântu Gheorghe","Strada Janos Kriza 520085 Sfântu Gheorghe","Public Transport","N/A","Covasna",45.862447,25.787266,0
"Zumba Sfantu Gheorghe","Strada Kos Karoly 520055 Sfântu Gheorghe","Educational Facility","N/A","Covasna",45.86072,25.78498,0
"China Market","Strada Tavaszy Sandor 520023 Sfântu Gheorghe","Shopping Centre","N/A","Covasna",45.86292,25.78975,0
"Prefectura Sfântu Gheorghe","Strada Gabor Aron 520008 Sfântu Gheorghe","Government or Community Facility","N/A","Covasna",45.86674,25.78587,0
"Biserica Sfântu Gheorghe","Bulevardul 15 Noiembrie 29 Brașov","Religious Place","N/A","Covasna",45.647819,25.603096,0
"Vama Sfântu Gheorghe","DN12 527166 Arcuș","Government or Community Facility","N/A","Covasna",45.88758,25.80872,0
"The city of Sfântu Gheorghe","Covasna, Romania","Attraction","N/A","Covasna",45.820120333333335,25.740741222222223,0
"The resorts in the mountains around:","Covasna, Romania","Attraction","N/A","Covasna",0,0,0
"Covasna","Romania","City, Town or Village","N/A","Covasna",45.84495,26.16916,0
"Covasna","Strada Unirii 525200 Covasna","Hotel","N/A","Covasna",45.84421,26.17472,0
"Covasna","Costuleni","Administrative Region","N/A","Covasna",47.00604,27.84491,0
"Primăria Covasna","Strada Gheorghe Doja 525200 Covasna","Government or Community Facility","N/A","Covasna",45.84459,26.16875,0
"Covasna Hm.","Strada Gara Mare 525200 Covasna","Railway Station","N/A","Covasna",45.85795,26.14698,0
"Autogara Covasna","Strada Ștefan cel Mare 525200 Covasna","Public Transport","N/A","Covasna",45.8468,26.16581,0
"Remat Covasna","Sfântu Gheorghe","Business & Services","N/A","Covasna",45.861477,25.813719,0
"Apia Covasna","Strada Locotenent Păiș David Sfântu Gheorghe","Government or Community Facility","N/A","Covasna",45.85054,25.80565,0
"Hotel Covasna","Strada 1 Decembrie 1918 1 525200 Covasna","Hotel","N/A","Covasna",45.84612,26.17037,0
"Ajofm Covasna","Bulevardul Gen. Grigore Bălan 14 Sfântu Gheorghe","Government or Community Facility","N/A","Covasna",45.868299,25.79421,0
"Hotel Montana","Strada Toth 525200 Covasna","Hotel","N/A","Covasna",45.84355,26.18177,0
"Winter Rally Covasna","Strada Livezii 3 520031 Sfântu Gheorghe","Sport Facility/Venue","N/A","Covasna",45.8597,25.7875,0
"Vinalcool Covasna","Strada Ciucului 520019 Sfântu Gheorghe","Shop","N/A","Covasna",45.87161,25.79537,0
"Dacia","Strada Unirii 525200 Covasna","Hotel","N/A","Covasna",45.84438,26.17431,0
"Inspectoratul Școlar Covasna","Strada Victor Babeș Sfântu Gheorghe","Educational Facility","N/A","Covasna",45.86596,25.78177,0
"I.T.M. Covasna","Strada Muncitorilor 520032 Sfântu Gheorghe","Government or Community Facility","N/A","Covasna",45.85592,25.78816,0
"Strada Covasna","Bucharest","Street or Square","N/A","Covasna",44.37926,26.11557,0
"Inspectoratul Școlar Județean Covasna","Strada Porumbeilor 520004 Sfântu Gheorghe","Government or Community Facility","N/A","Covasna",45.86607,25.78166,0
"Covasna","Covasna, Romania","Attraction","N/A","Covasna",45.83652366666667,26.092243833333335,0
"Băile Balvanyos","527160 Turia","Administrative Region","N/A","Covasna",46.1091,25.9591,0
"Grand Hotel Balvanyos (Balvanyos Resort)","DJ113 527160 Turia","Hotel","N/A","Covasna",46.11676,25.9423,0
"Cetatea Balvanyos","DJ113 527160 Turia","Landmark/Attraction","N/A","Covasna",46.1134,25.95977,0
"Cabana Istvana, Balvanyos","DJ113 527160 Turia","Transport","N/A","Covasna",46.108698,25.961687,0
"Gastrolab Balvanyos","DJ113 527160 Turia","Restaurant","N/A","Covasna",46.116512,25.943241,0
"Strada Balvanyos","525400 Târgu Secuiesc","Street or Square","N/A","Covasna",46.005,26.12787,0
"Vár panzió, Bálványos","DJ113 527160 Turia","Hotel","N/A","Covasna",46.038785,26.050135,0
"Bálvány utca","5900 Orosháza Hungary","Street or Square","N/A","Covasna",46.56943,20.68124,0
"Balványos","Covasna, Romania","Attraction","N/A","Covasna",46.14721062500001,25.328167875000002,0
"Malnaș-Băi","Malnaș","Administrative Region","N/A","Covasna",46.03342,25.82365,0
"Malnaş Băi","DJ122B 527118 Malnaș","Railway Station","N/A","Covasna",46.036151,25.824349,0
"Școala Primară Malnaș-Băi","DJ122B 527118 Malnaș","Educational Facility","N/A","Covasna",46.03286,25.82388,0
"Malnaș (Malnas)","Covasna","City, Town or Village","N/A","Covasna",46.0074,25.84109,0
"Malnaş h.","DN12 527117 Malnaș","Railway Station","N/A","Covasna",46.00147,25.84191,0
"Primaria Malnas","DN12 527117 Malnaș","Government or Community Facility","N/A","Covasna",46.0081,25.84087,0
"Oficiu Poștal Malnaș-Băi","DJ122B 527118 Malnaș","Post Office","N/A","Covasna",46.033,25.82382,0
"Oficiu Postal Malnas","527117 Malnaș","Post Office","N/A","Covasna",46.00872,25.84419,0
"Malnaş-Băi","Covasna, Romania","Attraction","N/A","Covasna",46.020140125,25.832969875,0
"Vâlcele","Covasna","City, Town or Village","N/A","Covasna",45.85465,25.68791,0
"Vâlcele","Olt","City, Town or Village","N/A","Covasna",44.28188,24.53895,0
"Vâlcele","Feleacu","Administrative Region","N/A","Covasna",46.67939,23.63937,0
"Vâlcelele","Calarasi","City, Town or Village","N/A","Covasna",44.39154,27.14359,0
"Halta Vâlcele","117464 Merișani","Railway Station","N/A","Covasna",45.00228,24.73124,0
"Vâlcelele","Buzau","City, Town or Village","N/A","Covasna",45.34118,27.34937,0
"Vâlcelele","Merișani","Administrative Region","N/A","Covasna",45.0001,24.70866,0
"Vâlcele","Târgu Ocna","Administrative Region","N/A","Covasna",46.30107,26.59704,0
"Vâlcele","Bretea Română","Administrative Region","N/A","Covasna",45.67098,23.04995,0
"Grădinița Vâlcele","DN13E Vâlcele","Educational Facility","N/A","Covasna",45.8532,25.68247,0
"Primăria Vâlcele","DJ653 237525 Vâlcele","Government or Community Facility","N/A","Covasna",44.28252,24.53908,0
"Vâlcele","Tismana","Administrative Region","N/A","Covasna",45.07687,22.98316,0
"Școala Generală Vâlcele","DN13E 527175 Vâlcele","Educational Facility","N/A","Covasna",45.8532,25.68248,0
"Vâlcele","Ulmeni","Administrative Region","N/A","Covasna",45.08814,26.63219,0
"Oficiu Poștal Vâlcele","DN13E 527175 Vâlcele","Post Office","N/A","Covasna",45.85371,25.68384,0
"Vâlcele","Corbasca","Administrative Region","N/A","Covasna",46.30523,27.12963,0
"Valcele","DN15 405100 Câmpia Turzii","Food & Drink","N/A","Covasna",46.54369,23.88782,0
"Vâlcele","Covasna, Romania","Attraction","N/A","Covasna",45.4929194117647,25.27451470588235,0
"Șugaș Băi","Sfântu Gheorghe","Leisure & Outdoor","N/A","Covasna",45.89674,25.70633,0
"Șugaș-Băi","Covasna, Romania","Attraction","N/A","Covasna",45.89674,25.70633,0
"Baile Fortyogo","Covasna, Romania","Attraction","N/A","Covasna",0,0,0
"Biborțeni","Baraolt","Administrative Region","N/A","Covasna",46.09374,25.65163,0
"Grădinița Biborțeni","525101 Baraolt","Educational Facility","N/A","Covasna",46.09462,25.64932,0
"Școala Generală Biborțeni","525101 Baraolt","Educational Facility","N/A","Covasna",46.09481,25.65239,0
"Strada Biborțeni","013992 Bucharest","Street or Square","N/A","Covasna",44.4899,26.09655,0
"Biserica Reformată Biborțeni","DJ122 Baraolt","Religious Place","N/A","Covasna",46.094697,25.655552,0
"Oficiu Poștal Biborțeni","DJ122 525101 Baraolt","Post Office","N/A","Covasna",46.09251,25.65846,0
"Strada Boboteni","610240 Piatra Neamt","Street or Square","N/A","Covasna",46.94812,26.39127,0
"Biborțeni","Covasna, Romania","Attraction","N/A","Covasna",45.98691385714285,25.822167428571426,0
"Ozunca-Băi","Bățani","Administrative Region","N/A","Covasna",46.09286,25.79621,0
"Baia Mare","Maramureș","City, Town or Village","N/A","Covasna",47.6572,23.56598,0
"Băile Olănești (Baile Olanesti)","Vâlcea","City, Town or Village","N/A","Covasna",45.20406,24.24166,0
"Baia de Fier","Gorj","City, Town or Village","N/A","Covasna",45.17151,23.7626,0
"Băicoi (Baicoi)","Prahova","City, Town or Village","N/A","Covasna",45.03372,25.87017,0
"Băișoara (Baisoara)","Cluj","City, Town or Village","N/A","Covasna",46.57723,23.466,0
"Băile Govora (Baile Govora)","Vâlcea","City, Town or Village","N/A","Covasna",45.08295,24.17083,0
"Băile Tușnad (Baile Tusnad)","Harghita","City, Town or Village","N/A","Covasna",46.14142,25.85778,0
"Harghita-Băi (Harghita-Bai)","Miercurea Ciuc","Administrative Region","N/A","Covasna",46.38488,25.63778,0
"Geoagiu-Băi (Geoagiu-Bai)","Geoagiu","Administrative Region","N/A","Covasna",45.93412,23.16795,0
"Băile Herculane (Baile Herculane)","Caraș-Severin","City, Town or Village","N/A","Covasna",44.86489,22.40683,0
"Ozunca-Bai","Covasna, Romania","Attraction","N/A","Covasna",45.83134909090909,24.35852636363636,0
"Bucegi Mountains","137310 Moroeni","Recreation","N/A","Covasna",45.40832,25.4703,0
"Retezat Mountains","DJ685 337382 Râu de Mori","Recreation","N/A","Covasna",45.497567,22.825877,0
"Pensiunea Cold Mountains","Strada Mihai Eminescu 505400 Râșnov","Accommodation","N/A","Covasna",45.58135,25.45855,0
"Mountain Paradise","Strada Principală 117040 Arefu","Accommodation","N/A","Covasna",45.326889,24.602082,0
"Pensiunea Mountain King","507267 Sâmbăta de Sus","Accommodation","N/A","Covasna",45.6953,24.80452,0
"Pensiunea Mountain King","507267 Sâmbăta de Sus","Hostel","N/A","Covasna",45.694148,24.801241,0
"The mountains:","Covasna, Romania","Attraction","N/A","Covasna",45.533929,24.660428333333332,0
"Baraolt Mountains","Covasna, Romania","Attraction","N/A","Covasna",0,0,0
"Bodoc Mountains","Covasna, Romania","Attraction","N/A","Covasna",0,0,0
"Nemira Mountains","Covasna, Romania","Attraction","N/A","Covasna",0,0,0
"Întorsurii Mountains","Covasna, Romania","Attraction","N/A","Covasna",0,0,0
"The city of Târgoviște – the ancient capital of Muntenia.","Dâmbovița, Romania","Attraction","N/A","Dâmbovița",0,0,0
"The Pucioasa Resort.","Dâmbovița, Romania","Attraction","N/A","Dâmbovița",0,0,0
"The Ialomița River Valley – Peștera Ialomicioarei.","Dâmbovița, Romania","Attraction","N/A","Dâmbovița",0,0,0
"City Bar & Lounge Craiova","Strada Alexandru Ioan Cuza Craiova","Going Out","N/A","Dolj",44.317617,23.811945,0
"Craiova, Craiova (Autogara Pelendava Nord)","Bulevardul Decebal Craiova","Public Transport","N/A","Dolj",44.32729,23.81868,0
"Primăria Municipiului Craiova","Strada Alexandru Ioan Cuza 200585 Craiova","Government or Community Facility","N/A","Dolj",44.31853,23.7966,0
"Universitatea din Craiova","Strada Alexandru Ioan Cuza 13 200585 Craiova","Educational Facility","N/A","Dolj",44.31843,23.80064,0
"Gara Craiova","Craiova","Railway Station","N/A","Dolj",44.32848,23.81632,0
"Curtea de Apel Craiova","Strada Constantin Brâncuși 200136 Craiova","Government or Community Facility","N/A","Dolj",44.32372,23.79353,0
"Judecătoria Craiova","Strada Alexandru Ioan Cuza Craiova","Government or Community Facility","N/A","Dolj",44.31796,23.80292,0
"The city of Craiova;","Dolj, Romania","Attraction","N/A","Dolj",44.321718142857144,23.805805,0
"Calafat","Strada Al. I. Cuza 205200 Calafat","Railway Station","N/A","Dolj",43.99389,22.92523,0
"Autogara Calafat","Bulevardul Horia Cloșca și Crișan 205200 Calafat","Public Transport","N/A","Dolj",43.99032,22.94179,0
"The city of Calafat;","Dolj, Romania","Attraction","N/A","Dolj",43.992104999999995,22.93351,0
"Fishing on the Danube;","Dolj, Romania","Attraction","N/A","Dolj",0,0,0
"Primăria Băilești","Strada Revoltei 205100 Băilești","Government or Community Facility","N/A","Dolj",44.01966,23.3444,0
"Poliția Băilești","Strada Victoriei 205100 Băilești","Police Station","N/A","Dolj",44.01879,23.34266,0
"Poliția Băilești","Strada Dreptății 205100 Băilești","Police Station","N/A","Dolj",44.01258,23.34764,0
"Băileşti","Strada Ana Ipătescu 205100 Băilești","Railway Station","N/A","Dolj",44.03292,23.34903,0
"Primăria Bălești","Strada G-Ral Popescu Gicu 627015 Bălești","Government or Community Facility","N/A","Dolj",45.43976,27.23364,0
"Spitalul Băilești","Strada Victoriei 205100 Băilești","Hospital","N/A","Dolj",44.02927,23.35013,0
"Judecatoria Băilești","Strada Victoriei 205100 Băilești","Government or Community Facility","N/A","Dolj",44.02731,23.34902,0
"Muzeul Campiei Băileștilor","Strada Victoriei 205100 Băilești","Museum","N/A","Dolj",44.02101,23.34429,0
"The city of Băilești.","Dolj, Romania","Attraction","N/A","Dolj",44.200162500000005,23.83260125,0
"Shopping City Galați","Galați","Shopping Centre","N/A","Galați",45.45228,28.03132,0
"Cinema City Galati","Bulevardul George Coșbuc 800506 Galați","Cinema","N/A","Galați",45.45069,28.03489,0
"City Slot Galati","Strada Domnească 17 800008 Galați","Going Out","N/A","Galați",45.4353,28.05525,0
"Medieval City of Sibiu","Piața Mare 12 550163 Sibiu","Sights & Museums","N/A","Galați",45.79653,24.15249,0
"Atmosphere Galati Shopping City","Galați","Shopping Centre","N/A","Galați",45.45162,28.0321,0
"Faleza Dunării Galați","Bulevardul Marea Unire Galați","Sights & Museums","N/A","Galați",45.42407,28.04327,0
"Autogara Galați Sud","Strada Ana Ipătescu Galați","Public Transport","N/A","Galați",45.44224,28.05962,0
"Galaţi","Strada Gării 1 Galați","Railway Station","N/A","Galați",45.444452,28.060084,0
"Arcelor Mittal Galați","Galați","Outdoor Area/Complex","N/A","Galați",45.441,27.98836,0
"The city of Galați.","Galați, Romania","Attraction","N/A","Galați",45.48202022222222,27.606375999999997,0
"cake near Brateș, Romania","N/A","undefined","N/A","Galați",45.83383,26.07206,0
"cake near Brateș, Tarcău, Romania","N/A","undefined","N/A","Galați",46.80128,26.14721,0
"cake near Brateșul, Bala, Romania","N/A","undefined","N/A","Galați",44.90538,22.82126,0
"Lake Brateș.","Galați, Romania","Attraction","N/A","Galați",45.846830000000004,25.01351,0
"Primăria Tecuci","Strada 1 Decembrie 1918 805300 Tecuci","Government or Community Facility","N/A","Galați",45.843996,27.430682,0
"Gara Tecuci","Strada Mihail Kogălniceanu 805300 Tecuci","Railway Station","N/A","Galați",45.83541,27.42361,0
"Medieval City of Sibiu","Piața Mare 12 550163 Sibiu","Sights & Museums","N/A","Galați",45.79653,24.15249,0
"The city of Tecuci.","Galați, Romania","Attraction","N/A","Galați",45.825312,26.335594,0
"The Clock Tower, made by Turks when the Giurgiu was raia","Giurgiu, Romania","Attraction","N/A","Giurgiu",0,0,0
"Historical Museum Isperih","Ulitsa Tsar Osvoboditel 7400 Isperih Bulgaria","Sights & Museums","N/A","Giurgiu",43.70993,26.82596,0
"The Historical Museum","Giurgiu, Romania","Attraction","N/A","Giurgiu",43.70993,26.82596,0
"The theatre Valah","Giurgiu, Romania","Attraction","N/A","Giurgiu",0,0,0
"The first bridge built in angel from Europe, over the Canalul Sf Gheorghe and Canalul Plantelor, with a specific construction over 100 years old; near this bridge is a new one from 2007","Giurgiu, Romania","Attraction","N/A","Giurgiu",0,0,0
"Sunset Over Danube","Ulitsa Batak 3 Ruse Bulgaria","Hotel","N/A","Giurgiu",43.85004,25.94842,0
"The Bridge of Friendship over the Danube between Giurgiu, Romania and Rousse, Bulgaria","Giurgiu, Romania","Attraction","N/A","Giurgiu",43.85004,25.94842,0
"The churches painted by important painters like Grigorescu","Giurgiu, Romania","Attraction","N/A","Giurgiu",0,0,0
"The fluvial station on the Danube river Port Giurgiu","Giurgiu, Romania","Attraction","N/A","Giurgiu",0,0,0
"The street Str. Garii filled with markets","Giurgiu, Romania","Attraction","N/A","Giurgiu",0,0,0
"The beautiful parks from town where many statues and fountains can be found","Giurgiu, Romania","Attraction","N/A","Giurgiu",0,0,0
"Fishing along the Danube","Giurgiu, Romania","Attraction","N/A","Giurgiu",0,0,0
"Strada Călugăreni","110194 Pitesti","Street or Square","N/A","Giurgiu",44.84792,24.88967,0
"Strada Călugăreni","410065 Oradea","Street or Square","N/A","Giurgiu",47.07713,21.91284,0
"Aleea Călugăreni","105402 Breaza","Street or Square","N/A","Giurgiu",45.18727,25.66419,0
"Strada Călugăreni","810311 Braila","Street or Square","N/A","Giurgiu",45.24816,27.93913,0
"Strada Călugăreni","705200 Pașcani","Street or Square","N/A","Giurgiu",47.24043,26.71658,0
"Aleea Călugăreni","710253 Botosani","Street or Square","N/A","Giurgiu",47.74526,26.67544,0
"Strada Călugăreni","207060 Bechet","Street or Square","N/A","Giurgiu",43.786,23.96269,0
"The Călugăreni area","Giurgiu, Romania","Attraction","N/A","Giurgiu",45.87602428571429,25.39436285714286,0
"The monasteries from Giurgiu, Comana","Giurgiu, Romania","Attraction","N/A","Giurgiu",0,0,0
"The city and the area around Târgu Jiu:","Gorj, Romania","Attraction","N/A","Gorj",0,0,0
"The Brâncuși monuments;","Gorj, Romania","Attraction","N/A","Gorj",0,0,0
"The Tismana Monastery.","Gorj, Romania","Attraction","N/A","Gorj",0,0,0
"The Parâng Mountains.","Gorj, Romania","Attraction","N/A","Gorj",0,0,0
"Polovragi Monastery","217365 Polovragi","Sights & Museums","N/A","Gorj",45.19273,23.78892,0
"The Polovragi Monastery.","Gorj, Romania","Attraction","N/A","Gorj",45.19273,23.78892,0
"The cities of Miercurea Ciuc, Odorheiu Secuiesc, Gheorgheni, Toplița.","Harghita, Romania","Attraction","N/A","Harghita",0,0,0
"Mountain Steak - Oficial","Strada Lacu Roșu 535502 Gheorgheni","Restaurant","N/A","Harghita",46.78727,25.788,0
"The mountain resorts of","Harghita, Romania","Attraction","N/A","Harghita",46.78727,25.788,0
"Băile Tușnad","Harghita","City, Town or Village","N/A","Harghita",46.14142,25.85778,0
"Strada Băile Tușnad","535100 Băile Tușnad","Street or Square","N/A","Harghita",46.14476,25.85925,0
"Băile Tuşnad Hm.","Strada Gării 535100 Băile Tușnad","Railway Station","N/A","Harghita",46.15071,25.86046,0
"Primăria Bâile Tușnad","DN12 535100 Băile Tușnad","Government or Community Facility","N/A","Harghita",46.14931,25.8596,0
"Székely Fogadó, Tusnádfürdő","Strada Oltului 57 535100 Băile Tușnad","Restaurant","N/A","Harghita",46.15112,25.86261,0
"Oficiul Poștal Băile Tușnad","535100 Băile Tușnad","Post Office","N/A","Harghita",46.14966,25.86022,0
"Poliția Bâile Tușnad","DN12 535100 Băile Tușnad","Police Station","N/A","Harghita",46.14613,25.85941,0
"Tușnad","Strada Băile Tușnad 8 535100 Băile Tușnad","Hotel","N/A","Harghita",46.144554,25.859294,0
"Tusnad Hotel","Aleea Sfânta Ana 18 535100 Băile Tușnad","Hotel","N/A","Harghita",46.14376,25.85951,0
"Apor Pizza Tusnad","Strada Oltului 124 535100 Băile Tușnad","Restaurant","N/A","Harghita",46.14368,25.85848,0
"Manyi Villa Tusnádfürdőn","Strada Oltului 535100 Băile Tușnad","Hotel","N/A","Harghita",46.14763,25.85897,0
"Băile Tușnad","Harghita, Romania","Attraction","N/A","Harghita",46.14661218181818,25.859598545454546,0
"Borsec","Harghita","City, Town or Village","N/A","Harghita",46.96433,25.56143,0
"Borsec","Strada Depozitelor 100300 Ploiești","Shop","N/A","Harghita",44.94473,25.9887,0
"Borsec","Strada Carpați Borsec","Kiosk/24-7/Convenience Store","N/A","Harghita",46.97035,25.55846,0
"Primăria","Strada Carpați 535300 Borsec","Government or Community Facility","N/A","Harghita",46.96534,25.56071,0
"Borsec - Borszék","Strada 7 Izvoare Borsec","Sport Facility/Venue","N/A","Harghita",46.97253,25.56083,0
"Poliția","Strada Izvorului 535300 Borsec","Police Station","N/A","Harghita",46.9726,25.55974,0
"Ocolul Silvic Borsec","Strada Topliței Borsec","Government or Community Facility","N/A","Harghita",46.96056,25.54416,0
"Vila Borsec","Strada Carpați 115 Borsec","Hotel","N/A","Harghita",46.97709,25.57023,0
"Baia O-Saros Borsec","Strada Uzinei 1 535600 Odorheiu Secuiesc","Business & Services","N/A","Harghita",46.30711,25.29836,0
"Aleea Borsec","551094 Mediaș","Street or Square","N/A","Harghita",46.16938,24.33596,0
"Vila Sport Borsec","Strada Tudor Vladimirescu 535300 Borsec","Hotel","N/A","Harghita",46.97268,25.56328,0
"Borsec Bernstein","Bulevardul 7 Izvoare 535300 Borsec","Hotel","N/A","Harghita",46.97675,25.57273,0
"Villa Bella Borsec","Strada Primăverii 13 535300 Borsec","Hotel","N/A","Harghita",46.9724,25.57088,0
"Aleea Borsec","400408 Cluj-Napoca","Street or Square","N/A","Harghita",46.76893,23.62231,0
"Borsec","Harghita, Romania","Attraction","N/A","Harghita",46.70677,25.347698571428573,0
"Lacul Roșu","Sulina","Body of Water","N/A","Harghita",45.054112,29.571849,0
"Lacul Roșuleț","Sulina","Body of Water","N/A","Harghita",45.071769,29.613473,0
"Lacu Roșu","Gheorgheni","Administrative Region","N/A","Harghita",46.79318,25.79501,0
"Strada Lacul Roșu","400614 Cluj-Napoca","Street or Square","N/A","Harghita",46.78104,23.61001,0
"Lacul Roșu","Strada Lacul Roșu 410451 Oradea","Coffee/Tea","N/A","Harghita",47.07431,21.9273,0
"Mânăstirea Lacul Roșu","Strada Bicăjel 617060 Bicaz-Chei","Religious Place","N/A","Harghita",46.79572,25.8066,0
"Bulevardul Lacul Tei","023571 Bucharest","Street or Square","N/A","Harghita",44.45992,26.11392,0
"Strada Lacul Roșu","410065 Oradea","Street or Square","N/A","Harghita",47.07446,21.92725,0
"Strada Lacul Binder","550099 Sibiu","Street or Square","N/A","Harghita",45.81048,24.13264,0
"Strada Lacul Morii","060941 Bucharest","Street or Square","N/A","Harghita",44.45093,26.02635,0
"Aleea Lacul Morii","030171 Bucharest","Street or Square","N/A","Harghita",44.44786,26.02084,0
"Strada Lacul Bucura","051521 Bucharest","Street or Square","N/A","Harghita",44.39417,26.07865,0
"Bulevardul Lacu Roșu","535500 Gheorgheni","Street or Square","N/A","Harghita",46.7266,25.61659,0
"Lacul Roșu","Harghita, Romania","Attraction","N/A","Harghita",45.76419623076923,25.556960153846152,0
"Izvoru Mureșului","Voșlăbeni","Administrative Region","N/A","Harghita",46.62271,25.68646,0
"Manastirea Izvorul Muresului","DN12 537356 Voșlăbeni","Religious Place","N/A","Harghita",46.61996,25.70161,0
"Izvoru Mureşului Hm.","Romania","Railway Station","N/A","Harghita",46.626717,25.716691,0
"Strada Izvorul Mureșului","Bucharest","Street or Square","N/A","Harghita",44.38648,26.10688,0
"Strada Izvorul Crișului (Strada Izvorul Crisului)","Bucharest","Street or Square","N/A","Harghita",44.38501,26.10518,0
"Pensiunea Maria Izvorul Muresului","DN12 537356 Voșlăbeni","Hotel","N/A","Harghita",46.61962,25.69449,0
"Poliția Izvoru Mureșului","DN12 537356 Voșlăbeni","Police Station","N/A","Harghita",46.62342,25.71463,0
"Strada Izvorul Crișului","Bucharest","Junction","N/A","Harghita",44.38468,26.10732,0
"Strada Izvorul Crișului","040906 Bucharest","Junction","N/A","Harghita",44.38373,26.10699,0
"Complexul Sportiv Izvoru Muresului","Voșlăbeni","Camping","N/A","Harghita",46.625555,25.715351,0
"Izvorul Mureşului","Harghita, Romania","Attraction","N/A","Harghita",45.727788200000006,25.865560199999997,0
"Harghita-Băi","Miercurea Ciuc","Administrative Region","N/A","Harghita",46.38488,25.63778,0
"Băile Tușnad","Harghita","City, Town or Village","N/A","Harghita",46.14142,25.85778,0
"Băile Homorod","Vlăhița","Administrative Region","N/A","Harghita",46.35081,25.46789,0
"Harghita","Romania","Administrative Region","N/A","Harghita",46.36405,25.80629,0
"Băile Chirui","Lueta","Administrative Region","N/A","Harghita",46.29767,25.57949,0
"Sântimbru-Băi","Sântimbru","Administrative Region","N/A","Harghita",46.27167,25.7578,0
"Jigodin-Băi","Miercurea Ciuc","Administrative Region","N/A","Harghita",46.34029,25.79766,0
"Strada Băilor","530143 Miercurea Ciuc","Street or Square","N/A","Harghita",46.33981,25.77355,0
"Strada Băilor","535400 Cristuru Secuiesc","Street or Square","N/A","Harghita",46.28945,25.02787,0
"Strada Băile Tușnad","535100 Băile Tușnad","Street or Square","N/A","Harghita",46.14476,25.85925,0
"Strada Băii","535500 Gheorgheni","Street or Square","N/A","Harghita",46.72003,25.59854,0
"Strada Jigodin-Băi","530211 Miercurea Ciuc","Street or Square","N/A","Harghita",46.33146,25.81286,0
"Strada Băii Sărate","535600 Odorheiu Secuiesc","Street or Square","N/A","Harghita",46.2955,25.28551,0
"Strada Harghita","530152 Miercurea Ciuc","Street or Square","N/A","Harghita",46.36521,25.78556,0
"Harghita Băi","Harghita, Romania","Attraction","N/A","Harghita",46.33121499999999,25.64627357142857,0
"Lake Sfânta Ana (crater lake)","Harghita, Romania","Attraction","N/A","Harghita",0,0,0
"DACIA near Orăștie, Romania","N/A","undefined","N/A","Hunedoara",45.83667,23.19482,0
"The Dacian Fortresses of the Orăștie Mountains - nowadays part of UNESCO World Heritage.","Hunedoara, Romania","Attraction","N/A","Hunedoara",45.83667,23.19482,0
"Colonia Augusta Ulpia Traiana Dacica Sarmizegetusa - the capital of the Roman province of Dacia.","Hunedoara, Romania","Attraction","N/A","Hunedoara",0,0,0
"The medieval edifices of Densuș, Deva, Hunedoara, Santămaria-Orlea, Strei.","Hunedoara, Romania","Attraction","N/A","Hunedoara",0,0,0
"Cabinet Medical","Strada Ștefan Octavian Iosif 332021 Petroșani","Hospital or Healthcare Facility","N/A","Hunedoara",45.413693,23.375832,0
"Cabinet Medical","Strada 1 Decembrie 1918 Petroșani","Hospital or Healthcare Facility","N/A","Hunedoara",45.42023,23.36839,0
"Cabinet Medical","Strada Nicolae Titulescu 336200 Vulcan","Hospital or Healthcare Facility","N/A","Hunedoara",45.37643,23.29329,0
"Dispensar Medical","Strada Eroilor Petroșani","Hospital or Healthcare Facility","N/A","Hunedoara",45.42465,23.36856,0
"Centrul Medical de Nefrologie si Dializa","Strada Nicolae Titulescu Petroșani","Hospital or Healthcare Facility","N/A","Hunedoara",45.40848,23.37593,0
"Cabinet Medical","Strada Unirii 332091 Petroșani","Hospital or Healthcare Facility","N/A","Hunedoara",45.39925,23.37481,0
"Centrul Medical Udrea-Ionascu","Aleea Poporului 332024 Petroșani","Hospital or Healthcare Facility","N/A","Hunedoara",45.41526,23.37306,0
"Centrul Medical Urosan","Strada Hunedoara Târgu Mureș","Hospital or Healthcare Facility","N/A","Hunedoara",46.52248,24.53883,0
"Cabinet Medical Iakab Luminita","Strada Constructorului 332045 Petroșani","Hospital or Healthcare Facility","N/A","Hunedoara",45.42402,23.36991,0
"Centrul Medical","Strada 1 Iunie 332091 Petroșani","Hospital or Healthcare Facility","N/A","Hunedoara",45.39791,23.37393,0
"Cabinet Medical Sink Angelica","332025 Petroșani","Hospital or Healthcare Facility","N/A","Hunedoara",45.41553,23.37098,0
"Centrul Medical Dr. Gârleanu","Strada 1 Decembrie 1918 332012 Petroșani","Hospital or Healthcare Facility","N/A","Hunedoara",45.422059,23.368251,0
"The Medieval Castle from Hunedoara","Hunedoara, Romania","Attraction","N/A","Hunedoara",45.503332666666665,23.46264775,0
"The Medieval Guard Tower from Crivadia","Hunedoara, Romania","Attraction","N/A","Hunedoara",0,0,0
"City Club - Fitness Slobozia","Bulevardul Chimiei 10 920036 Slobozia","Sport Facility/Venue","N/A","Ialomița",44.55983,27.36118,0
"Primăria Slobozia","Strada Episcopiei 1 920023 Slobozia","Government or Community Facility","N/A","Ialomița",44.562947,27.359697,0
"Primăria Slobozia","087210 Slobozia","Government or Community Facility","N/A","Ialomița",43.85712,25.91065,0
"Primăria Slobozia Moară","Șoseaua Morii 137420 Slobozia Moară","Government or Community Facility","N/A","Ialomița",44.59962,25.72636,0
"The city of Slobozia.","Ialomița, Romania","Attraction","N/A","Ialomița",44.39487925,26.58947175,0
"City of Iași and its environs (the Seven hills of Iași);","Iași, Romania","Attraction","N/A","Iași",0,0,0
"Muzeul Memorial Alexandru Ioan Cuza din Ruginoasa-Official","DN28A Ruginoasa","Museum","N/A","Iași",47.24275,26.84549,0
"Muzeul Memorial Alexandru Ioan Cuza din Ruginoasa-Official","DN28A 707420 Ruginoasa","Sights & Museums","N/A","Iași",47.242681,26.845386,0
"police near Alexandru Ioan Cuza, Moldova","N/A","undefined","N/A","Iași",45.59885,28.45063,0
"Alexandru Ioan Cuza Memorial Palace in Ruginoasa;","Iași, Romania","Attraction","N/A","Iași",46.694760333333335,27.380502000000003,0
"Cucuteni - Neolithic archeological site;","Iași, Romania","Attraction","N/A","Iași",0,0,0
"Cotnari and Bohotin vineyards;","Iași, Romania","Attraction","N/A","Iași",0,0,0
"Museum of Vineyard and Wine in Hârlău;","Iași, Romania","Attraction","N/A","Iași",0,0,0
"Hadâmbu and Dobrovăț Monasteries;","Iași, Romania","Attraction","N/A","Iași",0,0,0
"Miclăușeni Castle and Monastery;","Iași, Romania","Attraction","N/A","Iași",0,0,0
"Vasile Alecsandri Memorial House in Mircești;","Iași, Romania","Attraction","N/A","Iași",0,0,0
"Bulevardul Constantin Negruzzi","Kishinev Moldova","Street or Square","N/A","Iași",47.01362,28.85103,0
"Strada Constantin Negruzzi","Balti Moldova","Street or Square","N/A","Iași",47.78363,27.9209,0
"Strada Constantin Negruzzi","910014 Calarasi","Street or Square","N/A","Iași",44.18345,27.35855,0
"Strada Constantin Negruzzi","207068 Bistreț","Street or Square","N/A","Iași",43.89499,23.55152,0
"Strada Constantin Negruzzi","Orhei Moldova","Street or Square","N/A","Iași",47.38635,28.82334,0
"Strada Constantin Negruzzi","Cahul Moldova","Street or Square","N/A","Iași",45.91179,28.19795,0
"Strada Constantin Negruzzi","Ungheni Moldova","Street or Square","N/A","Iași",47.23688,27.7776,0
"Strada Constantin Negruzzi","Colibași Moldova","Street or Square","N/A","Iași",45.70527,28.17491,0
"Strada Constantin Negruzzi","Crihana Veche Moldova","Street or Square","N/A","Iași",45.83885,28.20311,0
"Strada Constantin Negruzzi","Ialoveni Moldova","Street or Square","N/A","Iași",46.95647,28.7608,0
"Strada Constantin Negruzzi","Manta Moldova","Street or Square","N/A","Iași",45.8097,28.17772,0
"Pasajul Constantin Negruzzi","Balti Moldova","Street or Square","N/A","Iași",47.78891,27.93248,0
"Strada Constantin Negruzzi","Drochia Moldova","Street or Square","N/A","Iași",48.0435,27.79895,0
"Strada Constantin Negruzzi","Cupcini Moldova","Street or Square","N/A","Iași",48.11106,27.38354,0
"Strada Constantin Negruzzi","Dondușeni Moldova","Street or Square","N/A","Iași",48.23513,27.60282,0
"Stradela Constantin Negruzzi","Drochia Moldova","Street or Square","N/A","Iași",48.04368,27.79766,0
"Strada Constantin Negruzzi","Dondușeni Sat Moldova","Street or Square","N/A","Iași",48.23399,27.60102,0
"Stradela Constantin Negruzzi","Lipcani Moldova","Street or Square","N/A","Iași",48.26506,26.80796,0
"Strada Constantin Negruzzi","Hulboaca Moldova","Street or Square","N/A","Iași",47.11681,28.80105,0
"Constantin Negruzzi Museum in Hermeziu;","Iași, Romania","Attraction","N/A","Iași",46.92416526315789,27.764363684210526,0
"Muzeul Memorial Cezar Petrescu","Strada Tudor Vladimirescu 105500 Bușteni","Museum","N/A","Iași",45.42294,25.54768,0
"Scoala Cezar Petrescu","Strada Scolii 105500 Bușteni","Educational Facility","N/A","Iași",45.410106,25.529234,0
"Strada Cezar Petrescu","Pitesti","Street or Square","N/A","Iași",44.86936,24.85516,0
"Strada Cezar Petrescu","Cluj-Napoca","Street or Square","N/A","Iași",46.74664,23.56724,0
"Strada Cezar Petrescu","105500 Bușteni","Street or Square","N/A","Iași",45.4218,25.54553,0
"Aleea Cezar Petrescu","110090 Pitesti","Street or Square","N/A","Iași",44.87024,24.85327,0
"Libraria Cezar Petrescu","Roman Musat Bulevardul 611022 Roman","Library","N/A","Iași",46.92609,26.92897,0
"Strada Cezar Petrescu","Targu Jiu","Street or Square","N/A","Iași",45.0405,23.25431,0
"Strada Cezar Petrescu","810062 Braila","Street or Square","N/A","Iași",45.29625,27.97367,0
"Strada Cezar Petrescu","611129 Roman","Street or Square","N/A","Iași",46.931,26.93554,0
"Piata Cezar Petrescu","Strada Cezar Petrescu Brăila","Food & Drink","N/A","Iași",45.29574,27.9713,0
"Strada Cezar Petrescu","705100 Hârlău","Street or Square","N/A","Iași",47.41949,26.92912,0
"Strada Cezar Petrescu","307160 Dumbrăvița","Street or Square","N/A","Iași",45.80233,21.23772,0
"Cezar Petrescu Museum in Cotnari;","Iași, Romania","Attraction","N/A","Iași",45.804037384615384,25.471441846153848,0
"The House Of Burger","Târgu Jiu","Restaurant","N/A","Iași",45.03723,23.27877,0
"Out Of Room","Strada Victoriei 210166 Târgu Jiu","Landmark/Attraction","N/A","Iași",45.038183,23.270854,0
"Oficiul Pentru Studii Pedologice și Agrochimice","Strada Localitate Componentă Drăgoieni 210002 Târgu Jiu","Government or Community Facility","N/A","Iași",45.03992,23.31892,0
"Island Of Leather","Târgu Jiu","Clothing & Accessories","N/A","Iași",45.02545,23.26566,0
"B.Eat","Piața Trandafirilor 52 540053 Târgu Mureș (Târgu Mures)","Restaurant","N/A","Iași",46.54514,24.56252,0
"City of Pașcani, and towns of Târgu Frumos and Hârlău;","Iași, Romania","Attraction","N/A","Iași",45.3371846,23.5393448,0
"Strunga health resort.","Iași, Romania","Attraction","N/A","Iași",0,0,0
"Snagov Monastery","077165 Snagov","Sights & Museums","N/A","Ilfov",44.72937,26.17509,0
"The Snagov Monastery","Ilfov, Romania","Attraction","N/A","Ilfov",44.72937,26.17509,0
"Cernica Monastery","Șoseaua Cernica 077145 Pantelimon","Religious Place","N/A","Ilfov",44.44677,26.21715,0
"The Cernica Monastery","Ilfov, Romania","Attraction","N/A","Ilfov",44.44677,26.21715,0
"police near Mogoșoaia, Romania","N/A","undefined","N/A","Ilfov",44.52473,26.00433,0
"Mogosoaia Palace","077135 Mogoșoaia","Sights & Museums","N/A","Ilfov",44.527776,25.993125,0
"The Mogoșoaia Palace","Ilfov, Romania","Attraction","N/A","Ilfov",44.526253,25.9987275,0
"The Căldărușani Monastery","Ilfov, Romania","Attraction","N/A","Ilfov",0,0,0
"The Ghica family palace in Moara Vlăsiei","Ilfov, Romania","Attraction","N/A","Ilfov",0,0,0
"Strada Știrbei Vodă","070000 Buftea","Street or Square","N/A","Ilfov",44.56203,25.94068,0
"Poliția Buftea","Strada Știrbei Vodă 070000 Buftea","Police Station","N/A","Ilfov",44.5595,25.94639,0
"Judecătoria Buftea","Strada Știrbei Vodă 070000 Buftea","Government or Community Facility","N/A","Ilfov",44.56105,25.94244,0
"Tribunalul Buftea","Strada Știrbei Vodă 070000 Buftea","Government or Community Facility","N/A","Ilfov",44.56105,25.94244,0
"The Știrbei Palace in Buftea","Ilfov, Romania","Attraction","N/A","Ilfov",44.5609075,25.9429875,0
"The cities of Baia Mare and Sighetu Marmației.","Maramureș, Romania","Attraction","N/A","Maramureș",0,0,0
"The villages on the Iza, Mara, and Vișeu Valleys.","Maramureș, Romania","Attraction","N/A","Maramureș",0,0,0
"Wooden Churches of Maramures","DN18 437136 Desești","Landmark/Attraction","N/A","Maramureș",47.78449,23.88833,0
"Wooden Churches of Maramures","Strada Mihail Kogălniceanu 435700 Vișeul de Sus","Religious Place","N/A","Maramureș",47.70311,24.43948,0
"The Wooden churches of Maramureș","Maramureș, Romania","Attraction","N/A","Maramureș",47.7438,24.163905,0
"The Wooden churches of Lăpuș","Maramureș, Romania","Attraction","N/A","Maramureș",0,0,0
"Wooden Churches of Maramures","DN18 437136 Desești","Landmark/Attraction","N/A","Maramureș",47.78449,23.88833,0
"Wooden Churches of Maramures","Strada Mihail Kogălniceanu 435700 Vișeul de Sus","Religious Place","N/A","Maramureș",47.70311,24.43948,0
"The Wooden churches of Chioar","Maramureș, Romania","Attraction","N/A","Maramureș",47.7438,24.163905,0
"Ferry near Săpânța, Romania","N/A","undefined","N/A","Maramureș",47.97452,23.7028,0
"The Merry Cemetery of Săpânța","Maramureș, Romania","Attraction","N/A","Maramureș",47.97452,23.7028,0
"The Rodna Mountains.","Maramureș, Romania","Attraction","N/A","Maramureș",0,0,0
"The landscape of Cavnic.","Maramureș, Romania","Attraction","N/A","Maramureș",0,0,0
"The city of Drobeta-Turnu Severin - the ruins of Trajan's first bridge over the Danube","Mehedinți, Romania","Attraction","N/A","Mehedinți",0,0,0
"Primăria Orșova","Bulevardul 1 Decembrie 1918 225200 Orșova","Government or Community Facility","N/A","Mehedinți",44.72295,22.39867,0
"Mânăstirea Sf. Ana","Strada Pamfil Șeicaru 225200 Orșova","Religious Place","N/A","Mehedinți",44.71175,22.39731,0
"Medieval City of Sibiu","Piața Mare 12 550163 Sibiu","Sights & Museums","N/A","Mehedinți",45.79653,24.15249,0
"Gara Orșova","DN6 225200 Orșova","Railway Station","N/A","Mehedinți",44.7306,22.41599,0
"Parchetul Orșova","Strada Porțile de Fier 225200 Orșova","Government or Community Facility","N/A","Mehedinți",44.71992,22.39719,0
"Poliția Orșova","Strada Porțile de Fier 225200 Orșova","Police Station","N/A","Mehedinți",44.72687,22.39743,0
"The city of Orșova.","Mehedinți, Romania","Attraction","N/A","Mehedinți",44.90143666666666,22.69318,0
"The Mehedinți Mountains.","Mehedinți, Romania","Attraction","N/A","Mehedinți",0,0,0
"Daneș","Mureș","City, Town or Village","N/A","Mehedinți",46.22164,24.70247,0
"Hotel Danubius Sovata","Strada Trandafirilor Sovata","Hotel","N/A","Mehedinți",46.602259,25.086269,0
"Danubius","900001 Constanța","Hotel","N/A","Mehedinți",44.25367,28.61934,0
"Danubius Health Spa Resort Sovata","Strada Vulturului 68 545500 Sovata","Hotel","N/A","Mehedinți",46.60217,25.08824,0
"Danubius","Calea 13 Septembrie 050734 București","Shop","N/A","Mehedinți",44.41971,26.06267,0
"Danubius","Strada Gheorghe Doja Târgu Mureș","Car Dealer/Repair","N/A","Mehedinți",46.536,24.55559,0
"Fundatia Danubius Tulcea","Strada Panseluțelor 540005 Târgu Mureș","Educational Facility","N/A","Mehedinți",46.53688,24.56452,0
"Danubius","Șoseaua Slobozia 087210 Slobozia","Petrol Station","N/A","Mehedinți",43.87106,25.92698,0
"Danubius","Bulevardul Mihai Viteazu 1 145400 Zimnicea","Hotel","N/A","Mehedinți",43.65497,25.36656,0
"Danubius Health Spa Resort Bradet","Strada Vulturului 68 545500 Sovata","Hotel","N/A","Mehedinți",46.60294,25.0901,0
"The Danube's Iron Gates.","Mehedinți, Romania","Attraction","N/A","Mehedinți",45.5301299,25.506273900000004,0
"Baia de Aramă","Mehedinti","City, Town or Village","N/A","Mehedinți",44.9999,22.81111,0
"Strada Baia de Aramă","022204 Bucharest","Street or Square","N/A","Mehedinți",44.43806,26.16325,0
"Primăria Baia de Aramă","Strada Republicii 225100 Baia de Aramă","Government or Community Facility","N/A","Mehedinți",44.99645,22.80741,0
"Baia de Arama-E","Bulevardul Basarabia 75 022109 București","Public Transport","N/A","Mehedinți",44.43618,26.1642,0
"Prislop Monastery","DJ687K 335500 Hațeg","Religious Place","N/A","Mehedinți",45.632703,22.853109,0
"Brancoveanu Monastery","507267 Sâmbăta de Sus (Sâmbata de Sus)","Religious Place","N/A","Mehedinți",45.69039,24.79516,0
"Curtea de Arges Monastery","115300 Curtea de Argeș","Religious Place","N/A","Mehedinți",45.15678,24.67547,0
"Baia de Fier","Gorj","City, Town or Village","N/A","Mehedinți",45.17151,23.7626,0
"Spitalul Orășenesc Baia de Aramă","Strada Iulian Predescu 225100 Baia de Aramă","Hospital","N/A","Mehedinți",44.99797,22.80968,0
"Apele Române Formația Baia de Aramă","Strada Constantin Brâncoveanu 225100 Baia de Aramă","Government or Community Facility","N/A","Mehedinți",44.99679,22.81318,0
"Baia de Arieș (Baia de Aries)","Alba","City, Town or Village","N/A","Mehedinți",46.38204,23.28138,0
"Carta Monastery","DJ105D 557070 Cârța","Sights & Museums","N/A","Mehedinți",45.785277,24.568428,0
"Baia de Aramă Monastery","Mehedinți, Romania","Attraction","N/A","Mehedinți",45.22367083333333,23.958748083333333,0
"Old City Cafe Lounge & Pub","Piața Trandafirilor 540053 Târgu Mureș","Coffee/Tea","N/A","Mureș",46.54392,24.56057,0
"Aeroportul Transilvania Târgu Mureș","547605 Vidrasău","Airport","N/A","Mureș",46.4672,24.4243,0
"Târgu Mureș Nord","Strada 30 Decembrie 540121 Târgu Mureș","Railway Station","N/A","Mureș",46.55414,24.56486,0
"Gara Târgu Mureș","Piața Gării Târgu Mureș","Railway Station","N/A","Mureș",46.53324,24.54948,0
"Cinema City","243 Târgu Mureș","Cinema","N/A","Mureș",46.50969,24.51079,0
"Continental","Piața Teatrului Târgu Mureș","Bar/Pub","N/A","Mureș",46.54706,24.56132,0
"Mures Mall","Bulevardul Gheorghe Doja Târgu Mureș","Shopping Centre","N/A","Mureș",46.53978,24.55801,0
"Targu Mures Fortress","Bulevardul Cetății 540089 Târgu Mureș","Sights & Museums","N/A","Mureș",46.54846,24.56792,0
"Promenada Mall","Strada Gheorghe Doja Târgu Mureș","Shopping Centre","N/A","Mureș",46.50952,24.51109,0
"Synagogue of TG. Mures","Strada Aurel Filimon 23 540035 Târgu Mureș","Religious Place","N/A","Mureș",46.54535,24.55763,0
"City Pharma","Strada Doctor Gheorghe Marinescu Târgu Mureș","Chemist's","N/A","Mureș",46.5594,24.58134,0
"City Plus Pharma","Bulevardul 1848 540422 Târgu Mureș","Chemist's","N/A","Mureș",46.52834,24.55369,0
"Mbo City","Târgu Mureș","Petrol Station","N/A","Mureș",46.53384,24.57147,0
"Cinema City Romania","Strada Gheorghe Doja 243 540052 Târgu Mureș","Cinema","N/A","Mureș",46.51116,24.51014,0
"New York City Pub&Grill","Târgu Mureș","Restaurant","N/A","Mureș",46.53947,24.55769,0
"The old city of Târgu Mureș","Mureș, Romania","Attraction","N/A","Mureș",46.53137133333334,24.542686666666665,0
"Medieval City of Sibiu","Piața Mare 12 550163 Sibiu","Sights & Museums","N/A","Mureș",45.79653,24.15249,0
"Medieval Cafe Restaurant","Strada Cositorarilor 10 545400 Sighișoara","Restaurant","N/A","Mureș",46.2191,24.79263,0
"Orasul Medieval","Strada Libertății 545400 Sighișoara","Going Out","N/A","Mureș",46.22581,24.79758,0
"Cabinet Medical Mens Sana","Strada Târnavei 35 545400 Sighișoara","Hospital or Healthcare Facility","N/A","Mureș",46.22296,24.78843,0
"The medieval city of Sighișoara","Mureș, Romania","Attraction","N/A","Mureș",46.116099999999996,24.6327825,0
"Danubius Health Spa Resort Sovata","Strada Vulturului 68 545500 Sovata","Hotel","N/A","Mureș",46.60217,25.08824,0
"Danubius Health Spa Resort Bradet","Strada Vulturului 68 545500 Sovata","Hotel","N/A","Mureș",46.60294,25.0901,0
"Sovata resort","Mureș, Romania","Attraction","N/A","Mureș",46.602554999999995,25.08917,0
"Primăria Reghin","Piața Petru Maior 545300 Reghin","Government or Community Facility","N/A","Mureș",46.78148,24.70147,0
"Gara Reghin","Strada Gării 545300 Reghin","Railway Station","N/A","Mureș",46.7805,24.7189,0
"Medieval City of Sibiu","Piața Mare 12 550163 Sibiu","Sights & Museums","N/A","Mureș",45.79653,24.15249,0
"The city of Reghin","Mureș, Romania","Attraction","N/A","Mureș",46.45283666666666,24.52428666666667,0
"The medieval fortified church of Saschiz","Mureș, Romania","Attraction","N/A","Mureș",0,0,0
"Călimani Mountains - Gurghiu Mountains","Mureș, Romania","Attraction","N/A","Mureș",0,0,0
"Medieval City of Sibiu","Piața Mare 12 550163 Sibiu","Sights & Museums","N/A","Neamț",45.79653,24.15249,0
"Gara Piatra Neamț","Piatra Neamț","Railway Station","N/A","Neamț",46.92764,26.3611,0
"Shopping City Piatra Neamt","Bulevardul Decebal 79 610039 Piatra Neamț","Shop","N/A","Neamț",46.93612,26.34879,0
"Galeria Piatra Neamț","610039 Piatra Neamț","Shopping Centre","N/A","Neamț",46.918536,26.390707,0
"Shopping City Piatra Neamț","3 Piatra Neamț","EV Charging Station","N/A","Neamț",46.934249,26.348681,0
"Primaria Municipiului Piatra Neamt","Piața Ștefan cel Mare 6 610101 Piatra Neamț","Government or Community Facility","N/A","Neamț",46.933777,26.368698,0
"Central Plaza Hotel","Strada Petrodava 1 Piatra Neamț","Hotel","N/A","Neamț",46.929896,26.363604,0
"Shopping City Piatra Neamț","Piatra Neamț","Parking Facility","N/A","Neamț",46.93494,26.34906,0
"Cadouri Shopping City Piatra Neamt","Bulevardul Decebal 79 610039 Piatra Neamț","Shopping Centre","N/A","Neamț",46.93612,26.34879,0
"Secția Drumuri Naționale Piatra-Neamț","Strada Arcului 610058 Piatra Neamț","Government or Community Facility","N/A","Neamț",46.936124,26.342759,0
"Casa de Cultura Piatra-Neamt","Bulevardul Decebal 610039 Piatra Neamț","Theatre, Music & Culture","N/A","Neamț",46.929697,26.364696,0
"Nefertiti","Bulevardul Decebal 610052 Piatra Neamț","Restaurant","N/A","Neamț",46.93636,26.35009,0
"Kaufland","Piatra Neamț","Food & Drink","N/A","Neamț",46.93789,26.37893,0
"Cream Outlet Piatra-Neamt","Piața Ștefan cel Mare 610016 Piatra Neamț","Shop","N/A","Neamț",46.93107,26.37088,0
"Diana","Aleea Caișilor 610013 Piatra Neamț","Shop","N/A","Neamț",46.92912,26.36412,0
"Grand Hotel Ceahlau Piatra Neamt","Piatra Neamț","Hotel","N/A","Neamț",46.93162,26.37084,0
"NEW YORKER","DN15 610191 Piatra Neamț","Clothing & Accessories","N/A","Neamț",46.91799,26.3896,0
"Salon Orhidee","Bulevardul Republicii 610005 Piatra Neamț","Shop","N/A","Neamț",46.92953,26.36382,0
"The city of Piatra Neamț, with its medieval square and ski facilities;","Neamț, Romania","Attraction","N/A","Neamț",46.86817827777778,26.240425277777778,0
"Cinema City Romania","Strada Gheorghe Doja 243 540052 Târgu Mureș","Cinema","N/A","Neamț",46.51116,24.51014,0
"Cinema City Romania","Strada Ferdinand 38 240571 Râmnicu Vâlcea","Cinema","N/A","Neamț",45.10999,24.3786,0
"Casa Româneasca Shopping City","Strada Ferdinand 38 240571 Râmnicu Vâlcea","Snacks/Fast food","N/A","Neamț",45.10999,24.3786,0
"Cinema City Romania","Pitești","Cinema","N/A","Neamț",44.86641,24.88391,0
"The city of Roman","Neamț, Romania","Attraction","N/A","Neamț",45.3993875,24.537812499999998,0
"Varatec Monastery","Strada Schimbarea La Față 617013 Agapia","Religious Place","N/A","Neamț",47.139602,26.269447,0
"Agapia Monastery","Neamț, Romania","Attraction","N/A","Neamț",47.139602,26.269447,0
"Bistrita Monastery","Strada Valea Mare 617508 Alexandru cel Bun","Religious Place","N/A","Neamț",46.95764,26.28795,0
"Bistrița Monastery","Neamț, Romania","Attraction","N/A","Neamț",46.95764,26.28795,0
"Durău Monastery","Neamț, Romania","Attraction","N/A","Neamț",0,0,0
"Horaița Monastery","Neamț, Romania","Attraction","N/A","Neamț",0,0,0
"Neamț Monastery","Neamț, Romania","Attraction","N/A","Neamț",0,0,0
"Pângărați Monastery","Neamț, Romania","Attraction","N/A","Neamț",0,0,0
"Petru Vodă","Poiana Teiului","Administrative Region","N/A","Neamț",47.12898,25.9981,0
"Petru","Strada Știrbei Vodă Râmnicu Vâlcea","Food & Drink","N/A","Neamț",45.10277,24.3631,0
"Strada Petru Vodă","051998 Bucharest","Street or Square","N/A","Neamț",44.40089,26.0642,0
"Mănăstirea Petru Vodă","Poiana Teiului","Religious Place","N/A","Neamț",47.17866,25.96443,0
"Școala Generală Petru Vodă","617346 Poiana Teiului","Educational Facility","N/A","Neamț",47.12374,25.99935,0
"Oficiu Poștal Petru Vodă","DN15B 617346 Poiana Teiului","Post Office","N/A","Neamț",47.11049,25.99663,0
"Cabinet Medical Dr. Blaj D. Petru","Strada Cuza Vodă 805300 Tecuci","Hospital or Healthcare Facility","N/A","Neamț",45.84326,27.44149,0
"Biserica Romano-Catolica Sf. Apostoli Petru si Paul","Strada Cuza Vodă 620034 Focșani","Religious Place","N/A","Neamț",45.7004,27.1897,0
"Strada Petru Rareș (Strada Petru Rares)","Vadul lui Vodă Moldova","Street or Square","N/A","Neamț",47.09052,29.07197,0
"Petru Vodă Monastery","Neamț, Romania","Attraction","N/A","Neamț",46.29774555555556,26.454329999999995,0
"Războieni Monastery","Neamț, Romania","Attraction","N/A","Neamț",0,0,0
"Secu Monastery","Neamț, Romania","Attraction","N/A","Neamț",0,0,0
"Sihăstria Monastery","Neamț, Romania","Attraction","N/A","Neamț",0,0,0
"Sihla Monastery","Neamț, Romania","Attraction","N/A","Neamț",0,0,0
"Varatec Monastery","Strada Schimbarea La Față 617013 Agapia","Religious Place","N/A","Neamț",47.139602,26.269447,0
"Văratec Monastery","Neamț, Romania","Attraction","N/A","Neamț",47.139602,26.269447,0
"Parcul Natural Vânători Neamț","Strada Principală 617010 Agapia","Recreation","N/A","Neamț",47.1738,26.28159,0
"Vanatori Neamt Nature Park","Strada Zimbrului 2 611156 Roman","Recreation","N/A","Neamț",46.9289,26.95226,0
"Parcul Natural Vanatori Neamt","DN15C Bălțătești","Recreation","N/A","Neamț",47.1199,26.31012,0
"Parcul Natural Vânători-Neamț","DN15B 617500 Vânători-Neamț","Sights & Museums","N/A","Neamț",47.23265,26.22416,0
"Parcul Natural Vanatori Neamt","DJ155C Vânători-Neamț","Government or Community Facility","N/A","Neamț",47.23844,26.23211,0
"Mănăstirea Sihastria","DJ157F 617500 Vânători-Neamț","Religious Place","N/A","Neamț",47.17495,26.16898,0
"Primăria Vânători-Neamț","DN15B 617500 Vânători-Neamț","Government or Community Facility","N/A","Neamț",47.21461,26.31691,0
"Biblioteca Vânători-Neamț","DN15B 617500 Vânători-Neamț","Library","N/A","Neamț",47.21618,26.3121,0
"Poliția Vânători-Neamț","DN15B 617500 Vânători-Neamț","Police Station","N/A","Neamț",47.21501,26.31561,0
"Oficiu Poștal Vânători-Neamț","DN15B 617500 Vânători-Neamț","Post Office","N/A","Neamț",47.21624,26.31192,0
"park near Vânători-Neamț, Romania","N/A","undefined","N/A","Neamț",47.21684,26.31024,0
"part near Vânători-Neamț, Romania","N/A","undefined","N/A","Neamț",47.21684,26.31024,0
"park near Mânăstirea Neamț, Vânători-Neamț, Romania","N/A","undefined","N/A","Neamț",47.2676,26.20233,0
"part near Mânăstirea Neamț, Vânători-Neamț, Romania","N/A","undefined","N/A","Neamț",47.2676,26.20233,0
"Vânători-Neamț Natural Park","Neamț, Romania","Attraction","N/A","Neamț",47.192825714285725,26.31792142857143,0
"Neamț Citadel","Târgu Neamț","Sights & Museums","N/A","Neamț",47.21461,26.34369,0
"Târgu Neamț","Neamț","City, Town or Village","N/A","Neamț",47.2057,26.36921,0
"Cetatea Neamt","615200 Târgu Neamț","Sights & Museums","N/A","Neamț",47.21465,26.34373,0
"Primăria Târgu Neamț","DN15B 615200 Târgu Neamț","Government or Community Facility","N/A","Neamț",47.20554,26.36786,0
"Strada Târgu Neamț","060941 Bucharest","Street or Square","N/A","Neamț",44.41871,26.02652,0
"Neamt Fortress","615200 Târgu Neamț","Sights & Museums","N/A","Neamț",47.21462,26.34373,0
"Stadion Cetatea Târgu Neamț","Strada 1 Decembrie 1918 615200 Târgu Neamț","Sport Facility/Venue","N/A","Neamț",47.20993,26.34484,0
"Poliția Târgu Neamț","DN15B 615200 Târgu Neamț","Police Station","N/A","Neamț",47.20568,26.37289,0
"Spitalul Orășenesc Târgu Neamț","Bulevardul Ștefan cel Mare 615200 Târgu Neamț","Hospital","N/A","Neamț",47.20719,26.3578,0
"Aleea Târgu Neamț","062052 Bucharest","Street or Square","N/A","Neamț",44.41795,26.02709,0
"Fight Club Scorpions Tîrgu-Neamț","Bulevardul Ștefan cel Mare 615200 Târgu Neamț","Sport Facility/Venue","N/A","Neamț",47.20571,26.36571,0
"Neamț Citadel in Târgu Neamț","Neamț, Romania","Attraction","N/A","Neamț",46.70184454545454,26.296642727272726,0
"park near Ceahlău, Romania","N/A","undefined","N/A","Neamț",47.03968,25.95382,0
"Ceahlău","Neamț","City, Town or Village","N/A","Neamț",47.03968,25.95382,0
"Mecanica Ceahlău","Strada Dumbravei 610202 Piatra Neamț","Outdoor Area/Complex","N/A","Neamț",46.90847,26.41484,0
"Strada Ceahlău","551113 Mediaș","Street or Square","N/A","Neamț",46.16977,24.33043,0
"Primăria Ceahlău","617125 Ceahlău","Government or Community Facility","N/A","Neamț",47.04259,25.96266,0
"Strada Ceahlău","060941 Bucharest","Street or Square","N/A","Neamț",44.45553,26.04906,0
"Strada Ceahlău","505100 Codlea","Street or Square","N/A","Neamț",45.69109,25.44078,0
"Strada Ceahlău","500128 Brasov","Street or Square","N/A","Neamț",45.62948,25.5718,0
"Strada Ceahlău","540402 Targu Mures","Street or Square","N/A","Neamț",46.53116,24.55297,0
"Strada Ceahlău","400488 Cluj-Napoca","Street or Square","N/A","Neamț",46.75945,23.58954,0
"Grădinița Ceahlău","DJ155F 617125 Ceahlău","Educational Facility","N/A","Neamț",47.03316,25.94385,0
"Strada Ceahlău","100051 Ploiesti","Street or Square","N/A","Neamț",44.93587,26.01809,0
"Ceahlău","Strada Barajului 615100 Bicaz","Accommodation","N/A","Neamț",46.91495,26.08616,0
"Strada Ceahlău","505300 Predeal","Street or Square","N/A","Neamț",45.50739,25.57144,0
"Ceahlău","Strada Ceahlăul 20 București","Food & Drink","N/A","Neamț",44.45715,26.04722,0
"part near Ceahlău, Romania","N/A","undefined","N/A","Neamț",47.03968,25.95382,0
"Ceahlău National Park","Neamț, Romania","Attraction","N/A","Neamț",46.19719375,25.59001875,0
"Bicaz Canyon - Cheile Bicazului","Neamț, Romania","Attraction","N/A","Neamț",0,0,0
"Ski Vidra Transalpina","DJ701D 247750 Voineasa","Leisure & Outdoor","N/A","Neamț",45.42245,23.69544,0
"Ranca Ski Resort","Baia de Fier","Leisure & Outdoor","N/A","Neamț",45.3143,23.68631,0
"Predeal Ski Area","Strada Clăbucet 505300 Predeal","Sport Facility/Venue","N/A","Neamț",45.49383,25.57277,0
"Valtour Ski School","Strada Poiana lui Neagoe 500001 Brașov","Sport Facility/Venue","N/A","Neamț",45.593194,25.549344,0
"Azuga Ski & Bike Resort","Strada Sorica 3 105100 Azuga","Hotel","N/A","Neamț",45.44366,25.58654,0
"Durău Ski Resort","Neamț, Romania","Attraction","N/A","Neamț",45.4534868,24.8180808,0
"Hanul Ancuței","DN2 617482 Tupilați","Accommodation","N/A","Neamț",47.09911,26.69793,0
"Hanu Ancuței","Neamț, Romania","Attraction","N/A","Neamț",47.09911,26.69793,0
"Gara Slatina","Piața Gării 230071 Slatina","Railway Station","N/A","Olt",44.42862,24.38841,0
"City Hotel Slatina","Strada Ecaterina Teodoroiu 230053 Slatina","Hotel","N/A","Olt",44.42532,24.3767,0
"Spitalul Județean Slatina","Strada Crișan Slatina","Hospital","N/A","Olt",44.43179,24.36655,0
"The city of Slatina.","Olt, Romania","Attraction","N/A","Olt",44.428576666666665,24.377219999999998,0
"Jedrenje Dunavom ~~ Sailing On The Danube","Bulevar Milutina Milankovica 11070 Beograd Serbia","Going Out","N/A","Olt",44.805816,20.423963,0
"Fishing on the Danube and on the Olt River.","Olt, Romania","Attraction","N/A","Olt",44.805816,20.423963,0
"City of Corabia with an ancient Roman citadel, a large orthodox cathedral, Danube sunbathes, sailing and fishing.","Olt, Romania","Attraction","N/A","Olt",0,0,0
"The town of Scornicești - the birthplace of Nicolae Ceaușescu.","Olt, Romania","Attraction","N/A","Olt",0,0,0
"On the Prahova Valley:","Prahova, Romania","Attraction","N/A","Prahova",0,0,0
"Bike Resort Sinaia","DC120 106100 Sinaia","Sport Facility/Venue","N/A","Prahova",45.350906,25.533254,0
"The Sinaia Resort.","Prahova, Romania","Attraction","N/A","Prahova",45.350906,25.533254,0
"The Bușteni Resort.","Prahova, Romania","Attraction","N/A","Prahova",0,0,0
"Azuga Ski & Bike Resort","Strada Sorica 3 105100 Azuga","Hotel","N/A","Prahova",45.44366,25.58654,0
"The Azuga Resort.","Prahova, Romania","Attraction","N/A","Prahova",45.44366,25.58654,0
"Bucegi Mountains","137310 Moroeni","Recreation","N/A","Prahova",45.40832,25.4703,0
"The Bucegi Mountains.","Prahova, Romania","Attraction","N/A","Prahova",45.40832,25.4703,0
"On the Teleajen River Valley:","Prahova, Romania","Attraction","N/A","Prahova",0,0,0
"Vălenii de Munte","Prahova","City, Town or Village","N/A","Prahova",45.1943,26.04281,0
"Vălenii de Munte","Romania","Railway Station","N/A","Prahova",45.179445,26.034598,0
"Primăria Vălenii de Munte","Strada Berevoiești 106400 Vălenii de Munte","Government or Community Facility","N/A","Prahova",45.18666,26.03945,0
"Autogara Vălenii de Munte","106400 Vălenii de Munte","Public Transport","N/A","Prahova",45.17947,26.03528,0
"Sala de Sport","106400 Vălenii de Munte","Sport Facility/Venue","N/A","Prahova",45.17944,26.03554,0
"Vălenii de Mureș","Brâncovenești","Administrative Region","N/A","Prahova",46.89118,24.79827,0
"Strada Vălenii de Munte","012721 Bucharest","Street or Square","N/A","Prahova",44.48642,26.01183,0
"Poliția Vălenii de Munte","DN1A 106400 Vălenii de Munte","Police Station","N/A","Prahova",45.19422,26.04277,0
"Poliția Comunitară Vălenii de Munte","Strada Berevoiești 106400 Vălenii de Munte","Police Station","N/A","Prahova",45.18663,26.03924,0
"Poliția Vălenii de Munte","Strada Dimineții 106400 Vălenii de Munte","Police Station","N/A","Prahova",45.18862,26.04431,0
"Strada Vălenii de Munte","300757 Timisoara","Street or Square","N/A","Prahova",45.73276,21.2295,0
"Stadionul Vălenii de Munte","Bulevardul Nicolae Iorga 106400 Vălenii de Munte","Sport Facility/Venue","N/A","Prahova",45.195,26.04293,0
"Piața Vălenii de Munte","106400 Vălenii de Munte","Shop","N/A","Prahova",45.18951,26.039372,0
"Parchetul Vălenii de Munte","Bulevardul Nicolae Iorga 106400 Vălenii de Munte","Government or Community Facility","N/A","Prahova",45.1856,26.03818,0
"Taverna Romană - Vălenii de Munte","DN1A 107307 Gura Vitioarei","Restaurant","N/A","Prahova",45.13559,26.03115,0
"GERMANOS Vălenii de Munte","Bulevardul Nicolae Iorga 106400 Vălenii de Munte","Electronics","N/A","Prahova",45.18073,26.0365,0
"The Vălenii de Munte Resort.","Prahova, Romania","Attraction","N/A","Prahova",45.2803484375,25.658858125000005,0
"Cheia","107356 Măneciu","Administrative Region","N/A","Prahova",45.45396,25.93677,0
"Cheia","Moieciu","Administrative Region","N/A","Prahova",45.46364,25.30666,0
"Cheia","Băile Olănești","Administrative Region","N/A","Prahova",45.18473,24.21142,0
"Cheia","Mihai Viteazu","Administrative Region","N/A","Prahova",46.54399,23.71265,0
"Cheia","107356 Măneciu","Hotel","N/A","Prahova",45.45963,25.93518,0
"Mănăstirea Cheia","107356 Măneciu","Religious Place","N/A","Prahova",45.45527,25.9422,0
